
{"businesses":[{"id":"panera-bread-san-luis-obispo","name":"Panera Bread","image_url":"https://s3-media4.fl.yelpcdn.com/bphoto/er0__ZcsuvtNswrHhPbH5A/o.jpg","is_closed":false,"url":"https://www.yelp.com/biz/panera-bread-san-luis-obispo?adjust_creative=W0FHo_DCPg17nE7p3sBQcg&utm_campaign=yelp_api_v3&utm_medium=api_v3_business_search&utm_source=W0FHo_DCPg17nE7p3sBQcg","review_count":137,"categories":[{"alias":"sandwiches","title":"Sandwiches"},{"alias":"salad","title":"Salad"},{"alias":"soup","title":"Soup"}],"rating":2.5,"coordinates":{"latitude":35.262548,"longitude":-120.677828},"transactions":[],"price":"$$","location":{"address1":"299 Madonna Rd","address2":"","address3":"","city":"San Luis Obispo","zip_code":"93405","country":"US","state":"CA","display_address":["299 Madonna Rd","San Luis Obispo, CA 93405"]},"phone":"+18055471800","display_phone":"(805) 547-1800","distance":1408.1860839561377},{"id":"new-earth-superfoods-san-luis-obispo-2","name":"New Earth Superfoods","image_url":"https://s3-media2.fl.yelpcdn.com/bphoto/6Zhb1kLBgFquMASAHK-0JA/o.jpg","is_closed":false,"url":"https://www.yelp.com/biz/new-earth-superfoods-san-luis-obispo-2?adjust_creative=W0FHo_DCPg17nE7p3sBQcg&utm_campaign=yelp_api_v3&utm_medium=api_v3_business_search&utm_source=W0FHo_DCPg17nE7p3sBQcg","review_count":30,"categories":[{"alias":"juicebars","title":"Juice Bars & Smoothies"},{"alias":"vegan","title":"Vegan"},{"alias":"raw_food","title":"Live/Raw Food"}],"rating":4.0,"coordinates":{"latitude":35.28136,"longitude":-120.66393},"transactions":[],"price":"$$","location":{"address1":"942 Chorro St","address2":null,"address3":"","city":"San Luis Obispo","zip_code":"93401","country":"US","state":"CA","display_address":["942 Chorro St","San Luis Obispo, CA 93401"]},"phone":"+18055922450","display_phone":"(805) 592-2450","distance":1639.983177237966},{"id":"peets-coffee-san-luis-obispo","name":"Peet's Coffee","image_url":"https://s3-media1.fl.yelpcdn.com/bphoto/vG9K3NOnlFo9SlJVUqBqeA/o.jpg","is_closed":false,"url":"https://www.yelp.com/biz/peets-coffee-san-luis-obispo?adjust_creative=W0FHo_DCPg17nE7p3sBQcg&utm_campaign=yelp_api_v3&utm_medium=api_v3_business_search&utm_source=W0FHo_DCPg17nE7p3sBQcg","review_count":60,"categories":[{"alias":"coffee","title":"Coffee & Tea"}],"rating":3.5,"coordinates":{"latitude":35.28093,"longitude":-120.66145},"transactions":[],"price":"$","location":{"address1":"1075 Court St","address2":"Ste 110","address3":"","city":"San Luis Obispo","zip_code":"93401","country":"US","state":"CA","display_address":["1075 Court St","Ste 110","San Luis Obispo, CA 93401"]},"phone":"+18055979478","display_phone":"(805) 597-9478","distance":1828.201290299326},{"id":"chili-peppers-restaurant-san-luis-obispo","name":"Chili Peppers Restaurant","image_url":"https://s3-media1.fl.yelpcdn.com/bphoto/HoDGjTY5ctkqKf9atPTheg/o.jpg","is_closed":false,"url":"https://www.yelp.com/biz/chili-peppers-restaurant-san-luis-obispo?adjust_creative=W0FHo_DCPg17nE7p3sBQcg&utm_campaign=yelp_api_v3&utm_medium=api_v3_business_search&utm_source=W0FHo_DCPg17nE7p3sBQcg","review_count":121,"categories":[{"alias":"mexican","title":"Mexican"},{"alias":"bars","title":"Bars"},{"alias":"breakfast_brunch","title":"Breakfast & Brunch"}],"rating":3.0,"coordinates":{"latitude":35.2708082,"longitude":-120.6573643},"transactions":[],"price":"$","location":{"address1":"2121 Broad St","address2":"","address3":"","city":"San Luis Obispo","zip_code":"93401","country":"US","state":"CA","display_address":["2121 Broad St","San Luis Obispo, CA 93401"]},"phone":"+18055419154","display_phone":"(805) 541-9154","distance":2139.2502073182377},{"id":"libertine-coffee-bar-san-luis-obispo-4","name":"Libertine Coffee Bar","image_url":"https://s3-media1.fl.yelpcdn.com/bphoto/URf9Tr09zUKSStmgzqwcKw/o.jpg","is_closed":false,"url":"https://www.yelp.com/biz/libertine-coffee-bar-san-luis-obispo-4?adjust_creative=W0FHo_DCPg17nE7p3sBQcg&utm_campaign=yelp_api_v3&utm_medium=api_v3_business_search&utm_source=W0FHo_DCPg17nE7p3sBQcg","review_count":14,"categories":[{"alias":"coffee","title":"Coffee & Tea"}],"rating":5.0,"coordinates":{"latitude":35.2775498529225,"longitude":-120.663223921639},"transactions":[],"price":"$","location":{"address1":"1240 Broad St","address2":"","address3":null,"city":"San Luis Obispo","zip_code":"93401","country":"US","state":"CA","display_address":["1240 Broad St","San Luis Obispo, CA 93401"]},"phone":"+18055482337","display_phone":"(805) 548-2337","distance":1579.546868103334},{"id":"the-library-san-luis-obispo","name":"The Library","image_url":"https://s3-media1.fl.yelpcdn.com/bphoto/94mLSkPLJUPKZTF3L5I8jw/o.jpg","is_closed":false,"url":"https://www.yelp.com/biz/the-library-san-luis-obispo?adjust_creative=W0FHo_DCPg17nE7p3sBQcg&utm_campaign=yelp_api_v3&utm_medium=api_v3_business_search&utm_source=W0FHo_DCPg17nE7p3sBQcg","review_count":96,"categories":[{"alias":"bars","title":"Bars"}],"rating":3.0,"coordinates":{"latitude":35.2789077758789,"longitude":-120.663963317871},"transactions":[],"price":"$$","location":{"address1":"723 Higuera St","address2":"","address3":"","city":"San Luis Obispo","zip_code":"93401","country":"US","state":"CA","display_address":["723 Higuera St","San Luis Obispo, CA 93401"]},"phone":"+18055420199","display_phone":"(805) 542-0199","distance":1545.153904847136},{"id":"chipotle-mexican-grill-san-luis-obispo-2","name":"Chipotle Mexican Grill","image_url":"https://s3-media1.fl.yelpcdn.com/bphoto/m_y8kvhsL7mN7waxqG4rXw/o.jpg","is_closed":false,"url":"https://www.yelp.com/biz/chipotle-mexican-grill-san-luis-obispo-2?adjust_creative=W0FHo_DCPg17nE7p3sBQcg&utm_campaign=yelp_api_v3&utm_medium=api_v3_business_search&utm_source=W0FHo_DCPg17nE7p3sBQcg","review_count":88,"categories":[{"alias":"mexican","title":"Mexican"},{"alias":"hotdogs","title":"Fast Food"}],"rating":3.0,"coordinates":{"latitude":35.2626158404746,"longitude":-120.677727400484},"transactions":[],"price":"$","location":{"address1":"297 Madonna Rd","address2":"","address3":"","city":"San Luis Obispo","zip_code":"93401","country":"US","state":"CA","display_address":["297 Madonna Rd","San Luis Obispo, CA 93401"]},"phone":"+18055416975","display_phone":"(805) 541-6975","distance":1402.2661052009819},{"id":"golden-gong-san-luis-obispo-2","name":"Golden Gong","image_url":"https://s3-media1.fl.yelpcdn.com/bphoto/9bInG4uh3wqalPYnb0rmDQ/o.jpg","is_closed":false,"url":"https://www.yelp.com/biz/golden-gong-san-luis-obispo-2?adjust_creative=W0FHo_DCPg17nE7p3sBQcg&utm_campaign=yelp_api_v3&utm_medium=api_v3_business_search&utm_source=W0FHo_DCPg17nE7p3sBQcg","review_count":96,"categories":[{"alias":"chinese","title":"Chinese"}],"rating":3.0,"coordinates":{"latitude":35.2629955570846,"longitude":-120.67880509883},"transactions":[],"price":"$$","location":{"address1":"290 Madonna Rd","address2":"","address3":"","city":"San Luis Obispo","zip_code":"93405","country":"US","state":"CA","display_address":["290 Madonna Rd","San Luis Obispo, CA 93405"]},"phone":"+18055410226","display_phone":"(805) 541-0226","distance":1346.996670810984},{"id":"pizza-republic-san-luis-obispo-2","name":"Pizza Republic","image_url":"https://s3-media4.fl.yelpcdn.com/bphoto/FJvSnZN1hqeR8hhCYqF30g/o.jpg","is_closed":false,"url":"https://www.yelp.com/biz/pizza-republic-san-luis-obispo-2?adjust_creative=W0FHo_DCPg17nE7p3sBQcg&utm_campaign=yelp_api_v3&utm_medium=api_v3_business_search&utm_source=W0FHo_DCPg17nE7p3sBQcg","review_count":75,"categories":[{"alias":"pizza","title":"Pizza"},{"alias":"salad","title":"Salad"},{"alias":"sandwiches","title":"Sandwiches"}],"rating":4.0,"coordinates":{"latitude":35.2502053817743,"longitude":-120.643691672173},"transactions":[],"price":"$","location":{"address1":"3810 Broad St","address2":"Ste 3","address3":"","city":"San Luis Obispo","zip_code":"93401","country":"US","state":"CA","display_address":["3810 Broad St","Ste 3","San Luis Obispo, CA 93401"]},"phone":"+18055434825","display_phone":"(805) 543-4825","distance":4325.06148481794},{"id":"pita-pit-san-luis-obispo-2","name":"Pita Pit","image_url":"https://s3-media4.fl.yelpcdn.com/bphoto/vlyXp8PGMi3VqX-98jj3hA/o.jpg","is_closed":false,"url":"https://www.yelp.com/biz/pita-pit-san-luis-obispo-2?adjust_creative=W0FHo_DCPg17nE7p3sBQcg&utm_campaign=yelp_api_v3&utm_medium=api_v3_business_search&utm_source=W0FHo_DCPg17nE7p3sBQcg","review_count":97,"categories":[{"alias":"mediterranean","title":"Mediterranean"},{"alias":"sandwiches","title":"Sandwiches"},{"alias":"hotdogs","title":"Fast Food"}],"rating":3.5,"coordinates":{"latitude":35.2944128954007,"longitude":-120.67062604715},"transactions":["delivery","pickup"],"price":"$","location":{"address1":"858 Foothill Blvd","address2":"","address3":"","city":"San Luis Obispo","zip_code":"93405","country":"US","state":"CA","display_address":["858 Foothill Blvd","San Luis Obispo, CA 93405"]},"phone":"+18055437488","display_phone":"(805) 543-7488","distance":2327.657949555534},{"id":"blackhorse-on-foothill-san-luis-obispo-2","name":"BlackHorse On Foothill","image_url":"https://s3-media1.fl.yelpcdn.com/bphoto/eVB6S8JVDI4PuYUbm4B5yw/o.jpg","is_closed":false,"url":"https://www.yelp.com/biz/blackhorse-on-foothill-san-luis-obispo-2?adjust_creative=W0FHo_DCPg17nE7p3sBQcg&utm_campaign=yelp_api_v3&utm_medium=api_v3_business_search&utm_source=W0FHo_DCPg17nE7p3sBQcg","review_count":63,"categories":[{"alias":"coffee","title":"Coffee & Tea"},{"alias":"bakeries","title":"Bakeries"},{"alias":"cafes","title":"Cafes"}],"rating":3.5,"coordinates":{"latitude":35.29432,"longitude":-120.6714},"transactions":[],"price":"$","location":{"address1":"796 E Foothill Blvd","address2":"","address3":"","city":"San Luis Obispo","zip_code":"93405","country":"US","state":"CA","display_address":["796 E Foothill Blvd","San Luis Obispo, CA 93405"]},"phone":"+18055419300","display_phone":"(805) 541-9300","distance":2295.676441150218},{"id":"royal-thai-san-luis-obispo","name":"Royal Thai","image_url":"https://s3-media2.fl.yelpcdn.com/bphoto/Fsq4p_jpTOB8qZj4WOw_vg/o.jpg","is_closed":false,"url":"https://www.yelp.com/biz/royal-thai-san-luis-obispo?adjust_creative=W0FHo_DCPg17nE7p3sBQcg&utm_campaign=yelp_api_v3&utm_medium=api_v3_business_search&utm_source=W0FHo_DCPg17nE7p3sBQcg","review_count":75,"categories":[{"alias":"thai","title":"Thai"}],"rating":3.5,"coordinates":{"latitude":35.2939651,"longitude":-120.6721631},"transactions":[],"price":"$$","location":{"address1":"777 E Foothill Blvd","address2":"","address3":"","city":"San Luis Obispo","zip_code":"93405","country":"US","state":"CA","display_address":["777 E Foothill Blvd","San Luis Obispo, CA 93405"]},"phone":"+18055449777","display_phone":"(805) 544-9777","distance":2131.17173379675},{"id":"kacey-cakes-san-luis-obispo","name":"Kacey Cakes","image_url":"https://s3-media2.fl.yelpcdn.com/bphoto/GoqQPtkbHZtYlOYYqgC32A/o.jpg","is_closed":false,"url":"https://www.yelp.com/biz/kacey-cakes-san-luis-obispo?adjust_creative=W0FHo_DCPg17nE7p3sBQcg&utm_campaign=yelp_api_v3&utm_medium=api_v3_business_search&utm_source=W0FHo_DCPg17nE7p3sBQcg","review_count":13,"categories":[{"alias":"desserts","title":"Desserts"},{"alias":"gluten_free","title":"Gluten-Free"}],"rating":5.0,"coordinates":{"latitude":35.2827524,"longitude":-120.6596156},"transactions":[],"price":"$$","location":{"address1":"","address2":null,"address3":"","city":"San Luis Obispo","zip_code":"93401","country":"US","state":"CA","display_address":["San Luis Obispo, CA 93401"]},"phone":"+18057090855","display_phone":"(805) 709-0855","distance":2068.253999731386},{"id":"tonitas-mexican-food-san-luis-obispo","name":"Tonita's Mexican Food","image_url":"https://s3-media1.fl.yelpcdn.com/bphoto/infgzN0rRIa5G0j4bUqKPw/o.jpg","is_closed":false,"url":"https://www.yelp.com/biz/tonitas-mexican-food-san-luis-obispo?adjust_creative=W0FHo_DCPg17nE7p3sBQcg&utm_campaign=yelp_api_v3&utm_medium=api_v3_business_search&utm_source=W0FHo_DCPg17nE7p3sBQcg","review_count":89,"categories":[{"alias":"mexican","title":"Mexican"}],"rating":3.0,"coordinates":{"latitude":35.278654,"longitude":-120.666008},"transactions":[],"price":"$","location":{"address1":"1024 Nipomo St","address2":"","address3":"","city":"San Luis Obispo","zip_code":"93401","country":"US","state":"CA","display_address":["1024 Nipomo St","San Luis Obispo, CA 93401"]},"phone":"+18055419006","display_phone":"(805) 541-9006","distance":1362.517911816824},{"id":"taco-roco-san-luis-obispo-2","name":"Taco Roco","image_url":"https://s3-media2.fl.yelpcdn.com/bphoto/APTp7Pmy1O3CD5Sp7ldRyQ/o.jpg","is_closed":false,"url":"https://www.yelp.com/biz/taco-roco-san-luis-obispo-2?adjust_creative=W0FHo_DCPg17nE7p3sBQcg&utm_campaign=yelp_api_v3&utm_medium=api_v3_business_search&utm_source=W0FHo_DCPg17nE7p3sBQcg","review_count":101,"categories":[{"alias":"mexican","title":"Mexican"}],"rating":3.0,"coordinates":{"latitude":35.257857678802,"longitude":-120.690910399346},"transactions":[],"price":"$","location":{"address1":"11560 Los Osos Valley Rd","address2":"Ste 130","address3":"","city":"San Luis Obispo","zip_code":"93401","country":"US","state":"CA","display_address":["11560 Los Osos Valley Rd","Ste 130","San Luis Obispo, CA 93401"]},"phone":"+18055459558","display_phone":"(805) 545-9558","distance":2137.941627214798},{"id":"yelp-celebrates-2018-at-central-coast-brewing-san-luis-obispo","name":"Yelp Celebrates 2018 at Central Coast Brewing","image_url":"https://s3-media3.fl.yelpcdn.com/bphoto/vooqxy3UC2kUeejpm_9IKg/o.jpg","is_closed":false,"url":"https://www.yelp.com/biz/yelp-celebrates-2018-at-central-coast-brewing-san-luis-obispo?adjust_creative=W0FHo_DCPg17nE7p3sBQcg&utm_campaign=yelp_api_v3&utm_medium=api_v3_business_search&utm_source=W0FHo_DCPg17nE7p3sBQcg","review_count":9,"categories":[{"alias":"yelpevents","title":"Yelp Events"}],"rating":5.0,"coordinates":{"latitude":35.28596,"longitude":-120.65548},"transactions":[],"location":{"address1":"1422 Monterey St","address2":"","address3":null,"city":"San Luis Obispo","zip_code":"93401","country":"US","state":"CA","display_address":["1422 Monterey St","San Luis Obispo, CA 93401"]},"phone":"+18057832739","display_phone":"(805) 783-2739","distance":2568.3188568979776},{"id":"lahainas-san-luis-obispo","name":"Lahaina's","image_url":"https://s3-media1.fl.yelpcdn.com/bphoto/niB_xVvOP4vm-EM_03oLTA/o.jpg","is_closed":false,"url":"https://www.yelp.com/biz/lahainas-san-luis-obispo?adjust_creative=W0FHo_DCPg17nE7p3sBQcg&utm_campaign=yelp_api_v3&utm_medium=api_v3_business_search&utm_source=W0FHo_DCPg17nE7p3sBQcg","review_count":64,"categories":[{"alias":"burgers","title":"Burgers"},{"alias":"salad","title":"Salad"},{"alias":"seafood","title":"Seafood"}],"rating":3.5,"coordinates":{"latitude":35.2446815454982,"longitude":-120.67458987236},"transactions":[],"price":"$","location":{"address1":"3975 S Higuera St","address2":"Ste 102","address3":null,"city":"San Luis Obispo","zip_code":"93405","country":"US","state":"CA","display_address":["3975 S Higuera St","Ste 102","San Luis Obispo, CA 93405"]},"phone":"+18055445540","display_phone":"(805) 544-5540","distance":3416.3717820088236},{"id":"lassens-natural-foods-and-vitamins-san-luis-obispo","name":"Lassens Natural Foods & Vitamins","image_url":"https://s3-media2.fl.yelpcdn.com/bphoto/J_bvEM3lapj3cTvde2BKAA/o.jpg","is_closed":false,"url":"https://www.yelp.com/biz/lassens-natural-foods-and-vitamins-san-luis-obispo?adjust_creative=W0FHo_DCPg17nE7p3sBQcg&utm_campaign=yelp_api_v3&utm_medium=api_v3_business_search&utm_source=W0FHo_DCPg17nE7p3sBQcg","review_count":45,"categories":[{"alias":"healthmarkets","title":"Health Markets"},{"alias":"organic_stores","title":"Organic Stores"},{"alias":"delis","title":"Delis"}],"rating":3.5,"coordinates":{"latitude":35.2948545580943,"longitude":-120.670037525496},"transactions":[],"price":"$$","location":{"address1":"896 Foothill Blvd","address2":null,"address3":"","city":"San Luis Obispo","zip_code":"93405","country":"US","state":"CA","display_address":["896 Foothill Blvd","San Luis Obispo, CA 93405"]},"phone":"+18052502805","display_phone":"(805) 250-2805","distance":2393.5554527526797},{"id":"blackhorse-espresso-and-bakery-san-luis-obispo-3","name":"BlackHorse Espresso and Bakery","image_url":"https://s3-media1.fl.yelpcdn.com/bphoto/GwfLRrSp6P6GqeEMHtABvA/o.jpg","is_closed":false,"url":"https://www.yelp.com/biz/blackhorse-espresso-and-bakery-san-luis-obispo-3?adjust_creative=W0FHo_DCPg17nE7p3sBQcg&utm_campaign=yelp_api_v3&utm_medium=api_v3_business_search&utm_source=W0FHo_DCPg17nE7p3sBQcg","review_count":72,"categories":[{"alias":"coffee","title":"Coffee & Tea"},{"alias":"bakeries","title":"Bakeries"}],"rating":3.5,"coordinates":{"latitude":35.2482153555777,"longitude":-120.683412130377},"transactions":[],"price":"$","location":{"address1":"12300 Los Osos Valley Rd","address2":"","address3":"","city":"San Luis Obispo","zip_code":"93405","country":"US","state":"CA","display_address":["12300 Los Osos Valley Rd","San Luis Obispo, CA 93405"]},"phone":"+18055472300","display_phone":"(805) 547-2300","distance":2996.0613496456},{"id":"cork-n-bottle-liquor-store-and-deli-san-luis-obispo-2","name":"Cork 'n' Bottle Liquor Store & Deli","image_url":"https://s3-media3.fl.yelpcdn.com/bphoto/hyOFpFQiWKJavwuDCIyVqQ/o.jpg","is_closed":false,"url":"https://www.yelp.com/biz/cork-n-bottle-liquor-store-and-deli-san-luis-obispo-2?adjust_creative=W0FHo_DCPg17nE7p3sBQcg&utm_campaign=yelp_api_v3&utm_medium=api_v3_business_search&utm_source=W0FHo_DCPg17nE7p3sBQcg","review_count":40,"categories":[{"alias":"beer_and_wine","title":"Beer, Wine & Spirits"},{"alias":"burgers","title":"Burgers"}],"rating":3.5,"coordinates":{"latitude":35.294532,"longitude":-120.672256},"transactions":[],"price":"$","location":{"address1":"774 Foothill Blvd","address2":null,"address3":"","city":"San Luis Obispo","zip_code":"93405","country":"US","state":"CA","display_address":["774 Foothill Blvd","San Luis Obispo, CA 93405"]},"phone":"+18055438637","display_phone":"(805) 543-8637","distance":2289.036605417732},{"id":"taco-roco-san-luis-obispo-3","name":"Taco Roco","image_url":"https://s3-media2.fl.yelpcdn.com/bphoto/F5J5seXcysKMh71MGqGaNA/o.jpg","is_closed":false,"url":"https://www.yelp.com/biz/taco-roco-san-luis-obispo-3?adjust_creative=W0FHo_DCPg17nE7p3sBQcg&utm_campaign=yelp_api_v3&utm_medium=api_v3_business_search&utm_source=W0FHo_DCPg17nE7p3sBQcg","review_count":102,"categories":[{"alias":"mexican","title":"Mexican"}],"rating":3.0,"coordinates":{"latitude":35.26027,"longitude":-120.6486},"transactions":[],"price":"$","location":{"address1":"3230 Broad St","address2":"","address3":"","city":"San Luis Obispo","zip_code":"93401","country":"US","state":"CA","display_address":["3230 Broad St","San Luis Obispo, CA 93401"]},"phone":"+18055432810","display_phone":"(805) 543-2810","distance":3326.5899681159476},{"id":"palo-mesa-pizza-san-luis-obispo","name":"Palo Mesa Pizza","image_url":"https://s3-media2.fl.yelpcdn.com/bphoto/JR-LEoxSDE3sp5qWeXmh4g/o.jpg","is_closed":false,"url":"https://www.yelp.com/biz/palo-mesa-pizza-san-luis-obispo?adjust_creative=W0FHo_DCPg17nE7p3sBQcg&utm_campaign=yelp_api_v3&utm_medium=api_v3_business_search&utm_source=W0FHo_DCPg17nE7p3sBQcg","review_count":78,"categories":[{"alias":"pizza","title":"Pizza"}],"rating":3.5,"coordinates":{"latitude":35.25282,"longitude":-120.67128},"transactions":[],"price":"$$","location":{"address1":"3536 S Higuera","address2":"Ste 206","address3":"","city":"San Luis Obispo","zip_code":"93401","country":"US","state":"CA","display_address":["3536 S Higuera","Ste 206","San Luis Obispo, CA 93401"]},"phone":"+18057840983","display_phone":"(805) 784-0983","distance":2651.6645710650077},{"id":"bulls-tavern-san-luis-obispo","name":"Bull's Tavern","image_url":"https://s3-media1.fl.yelpcdn.com/bphoto/cNaNJNDB3s4-Fvj2mlpLdQ/o.jpg","is_closed":false,"url":"https://www.yelp.com/biz/bulls-tavern-san-luis-obispo?adjust_creative=W0FHo_DCPg17nE7p3sBQcg&utm_campaign=yelp_api_v3&utm_medium=api_v3_business_search&utm_source=W0FHo_DCPg17nE7p3sBQcg","review_count":57,"categories":[{"alias":"divebars","title":"Dive Bars"}],"rating":3.0,"coordinates":{"latitude":35.280316326043,"longitude":-120.66314470376},"transactions":[],"price":"$","location":{"address1":"1032 Chorro St","address2":"","address3":"","city":"San Luis Obispo","zip_code":"93401","country":"US","state":"CA","display_address":["1032 Chorro St","San Luis Obispo, CA 93401"]},"phone":"+18055432217","display_phone":"(805) 543-2217","distance":1668.3499836012998},{"id":"blackhorse-on-broad-san-luis-obispo","name":"BlackHorse on Broad","image_url":"https://s3-media4.fl.yelpcdn.com/bphoto/fyormlKnPkYRRN87vYvKyg/o.jpg","is_closed":false,"url":"https://www.yelp.com/biz/blackhorse-on-broad-san-luis-obispo?adjust_creative=W0FHo_DCPg17nE7p3sBQcg&utm_campaign=yelp_api_v3&utm_medium=api_v3_business_search&utm_source=W0FHo_DCPg17nE7p3sBQcg","review_count":85,"categories":[{"alias":"coffee","title":"Coffee & Tea"},{"alias":"bakeries","title":"Bakeries"}],"rating":3.5,"coordinates":{"latitude":35.2546577453613,"longitude":-120.64575958252},"transactions":[],"price":"$","location":{"address1":"3590 Broad St","address2":"Unit 150","address3":"","city":"San Luis Obispo","zip_code":"93401","country":"US","state":"CA","display_address":["3590 Broad St","Unit 150","San Luis Obispo, CA 93401"]},"phone":"+18054391300","display_phone":"(805) 439-1300","distance":3868.3335990240976},{"id":"chilie-peppers-san-luis-obispo-3","name":"Chilie Peppers","image_url":"https://s3-media2.fl.yelpcdn.com/bphoto/MCrixU9fGoR0ElJ8VLCmYw/o.jpg","is_closed":false,"url":"https://www.yelp.com/biz/chilie-peppers-san-luis-obispo-3?adjust_creative=W0FHo_DCPg17nE7p3sBQcg&utm_campaign=yelp_api_v3&utm_medium=api_v3_business_search&utm_source=W0FHo_DCPg17nE7p3sBQcg","review_count":85,"categories":[{"alias":"mexican","title":"Mexican"}],"rating":3.0,"coordinates":{"latitude":35.2939651,"longitude":-120.6718604},"transactions":[],"price":"$","location":{"address1":"791 E Foothill Blvd","address2":"","address3":"","city":"San Luis Obispo","zip_code":"93405","country":"US","state":"CA","display_address":["791 E Foothill Blvd","San Luis Obispo, CA 93405"]},"phone":"+18055418591","display_phone":"(805) 541-8591","distance":2228.560811609002},{"id":"np-grill-cafe-san-luis-obispo","name":"NP Grill Cafe","image_url":"https://s3-media4.fl.yelpcdn.com/bphoto/78m-N_CWcmy6JWj3p6Nn7w/o.jpg","is_closed":false,"url":"https://www.yelp.com/biz/np-grill-cafe-san-luis-obispo?adjust_creative=W0FHo_DCPg17nE7p3sBQcg&utm_campaign=yelp_api_v3&utm_medium=api_v3_business_search&utm_source=W0FHo_DCPg17nE7p3sBQcg","review_count":9,"categories":[{"alias":"cafes","title":"Cafes"}],"rating":4.5,"coordinates":{"latitude":35.2786497497691,"longitude":-120.666066515705},"transactions":[],"price":"$","location":{"address1":"1024 Nipomo St","address2":"","address3":"","city":"San Luis Obispo","zip_code":"93401","country":"US","state":"CA","display_address":["1024 Nipomo St","San Luis Obispo, CA 93401"]},"phone":"+18055429757","display_phone":"(805) 542-9757","distance":1357.303139251374},{"id":"taco-rico-san-luis-obispo","name":"Taco Rico","image_url":"https://s3-media3.fl.yelpcdn.com/bphoto/1BwNyScoKObO1ouekOstvw/o.jpg","is_closed":false,"url":"https://www.yelp.com/biz/taco-rico-san-luis-obispo?adjust_creative=W0FHo_DCPg17nE7p3sBQcg&utm_campaign=yelp_api_v3&utm_medium=api_v3_business_search&utm_source=W0FHo_DCPg17nE7p3sBQcg","review_count":59,"categories":[{"alias":"mexican","title":"Mexican"}],"rating":3.5,"coordinates":{"latitude":35.2450993997532,"longitude":-120.67423035886},"transactions":[],"price":"$","location":{"address1":"3975 S Higuera St","address2":"","address3":"","city":"San Luis Obispo","zip_code":"93401","country":"US","state":"CA","display_address":["3975 S Higuera St","San Luis Obispo, CA 93401"]},"phone":"+18057818080","display_phone":"(805) 781-8080","distance":3375.683907712452},{"id":"chronic-tacos-san-luis-obispo","name":"Chronic Tacos","image_url":"https://s3-media1.fl.yelpcdn.com/bphoto/6P2IYUq3HoDpG5XOM-0rHg/o.jpg","is_closed":false,"url":"https://www.yelp.com/biz/chronic-tacos-san-luis-obispo?adjust_creative=W0FHo_DCPg17nE7p3sBQcg&utm_campaign=yelp_api_v3&utm_medium=api_v3_business_search&utm_source=W0FHo_DCPg17nE7p3sBQcg","review_count":88,"categories":[{"alias":"mexican","title":"Mexican"}],"rating":2.5,"coordinates":{"latitude":35.2798004,"longitude":-120.6613388},"transactions":["delivery"],"price":"$","location":{"address1":"892 Marsh St","address2":"","address3":"","city":"San Luis Obispo","zip_code":"93401","country":"US","state":"CA","display_address":["892 Marsh St","San Luis Obispo, CA 93401"]},"phone":"+18054393546","display_phone":"(805) 439-3546","distance":1819.1067636703199},{"id":"mission-plaza-san-luis-obispo","name":"Mission Plaza","image_url":"https://s3-media1.fl.yelpcdn.com/bphoto/1bVCDRTvZGfpT1V6HmtVfg/o.jpg","is_closed":false,"url":"https://www.yelp.com/biz/mission-plaza-san-luis-obispo?adjust_creative=W0FHo_DCPg17nE7p3sBQcg&utm_campaign=yelp_api_v3&utm_medium=api_v3_business_search&utm_source=W0FHo_DCPg17nE7p3sBQcg","review_count":8,"categories":[{"alias":"landmarks","title":"Landmarks & Historical Buildings"}],"rating":4.5,"coordinates":{"latitude":35.2798233032227,"longitude":-120.664825439453},"transactions":[],"location":{"address1":"989 Chorro St","address2":"","address3":"","city":"San Luis Obispo","zip_code":"93401","country":"US","state":"CA","display_address":["989 Chorro St","San Luis Obispo, CA 93401"]},"phone":"+18057817300","display_phone":"(805) 781-7300","distance":1506.252310402668},{"id":"popeyes-louisiana-kitchen-san-luis-obispo","name":"Popeyes Louisiana Kitchen","image_url":"https://s3-media2.fl.yelpcdn.com/bphoto/1pZwSxmUhpjiXpLrGIpAUA/o.jpg","is_closed":false,"url":"https://www.yelp.com/biz/popeyes-louisiana-kitchen-san-luis-obispo?adjust_creative=W0FHo_DCPg17nE7p3sBQcg&utm_campaign=yelp_api_v3&utm_medium=api_v3_business_search&utm_source=W0FHo_DCPg17nE7p3sBQcg","review_count":77,"categories":[{"alias":"hotdogs","title":"Fast Food"},{"alias":"chicken_wings","title":"Chicken Wings"}],"rating":3.0,"coordinates":{"latitude":35.2945333,"longitude":-120.6708709},"transactions":[],"price":"$","location":{"address1":"840 E Foothill Blvd","address2":"","address3":"","city":"San Luis Obispo","zip_code":"93405","country":"US","state":"CA","display_address":["840 E Foothill Blvd","San Luis Obispo, CA 93405"]},"phone":"+18055481767","display_phone":"(805) 548-1767","distance":2331.7585708890956},{"id":"jack-house-and-gardens-san-luis-obispo","name":"Jack House and Gardens","image_url":"https://s3-media4.fl.yelpcdn.com/bphoto/oX0Jc1biiXAwGhLlaOAgjA/o.jpg","is_closed":false,"url":"https://www.yelp.com/biz/jack-house-and-gardens-san-luis-obispo?adjust_creative=W0FHo_DCPg17nE7p3sBQcg&utm_campaign=yelp_api_v3&utm_medium=api_v3_business_search&utm_source=W0FHo_DCPg17nE7p3sBQcg","review_count":8,"categories":[{"alias":"landmarks","title":"Landmarks & Historical Buildings"}],"rating":4.5,"coordinates":{"latitude":35.27708,"longitude":-120.6661},"transactions":[],"location":{"address1":"536 Marsh St","address2":null,"address3":"","city":"San Luis Obispo","zip_code":"93401","country":"US","state":"CA","display_address":["536 Marsh St","San Luis Obispo, CA 93401"]},"phone":"+18057817308","display_phone":"(805) 781-7308","distance":1296.1283913779039},{"id":"slo-coast-coffee-san-luis-obispo","name":"SLO Coast Coffee","image_url":"https://s3-media2.fl.yelpcdn.com/bphoto/7e8K7SakjgqDy6ckcIjYow/o.jpg","is_closed":false,"url":"https://www.yelp.com/biz/slo-coast-coffee-san-luis-obispo?adjust_creative=W0FHo_DCPg17nE7p3sBQcg&utm_campaign=yelp_api_v3&utm_medium=api_v3_business_search&utm_source=W0FHo_DCPg17nE7p3sBQcg","review_count":8,"categories":[{"alias":"foodtrucks","title":"Food Trucks"},{"alias":"coffee","title":"Coffee & Tea"}],"rating":5.0,"coordinates":{"latitude":35.28,"longitude":-120.66},"transactions":[],"price":"$","location":{"address1":"","address2":"","address3":"","city":"San Luis Obispo","zip_code":"93403","country":"US","state":"CA","display_address":["San Luis Obispo, CA 93403"]},"phone":"+18057480833","display_phone":"(805) 748-0833","distance":1927.8551926154457},{"id":"starbucks-san-luis-obispo-10","name":"Starbucks","image_url":"https://s3-media1.fl.yelpcdn.com/bphoto/zhZCN1-DAKsHbVQARH4siQ/o.jpg","is_closed":false,"url":"https://www.yelp.com/biz/starbucks-san-luis-obispo-10?adjust_creative=W0FHo_DCPg17nE7p3sBQcg&utm_campaign=yelp_api_v3&utm_medium=api_v3_business_search&utm_source=W0FHo_DCPg17nE7p3sBQcg","review_count":38,"categories":[{"alias":"coffee","title":"Coffee & Tea"}],"rating":3.5,"coordinates":{"latitude":35.245526,"longitude":-120.673361},"transactions":[],"price":"$","location":{"address1":"3971 S Higuera St","address2":"","address3":"","city":"San Luis Obispo","zip_code":"93401","country":"US","state":"CA","display_address":["3971 S Higuera St","San Luis Obispo, CA 93401"]},"phone":"+18057870389","display_phone":"(805) 787-0389","distance":3351.520541323138},{"id":"11th-hole-grill-san-luis-obispo","name":"11th Hole Grill","image_url":"https://s3-media2.fl.yelpcdn.com/bphoto/8_VxXizRo6_7BdTtbTgCtA/o.jpg","is_closed":false,"url":"https://www.yelp.com/biz/11th-hole-grill-san-luis-obispo?adjust_creative=W0FHo_DCPg17nE7p3sBQcg&utm_campaign=yelp_api_v3&utm_medium=api_v3_business_search&utm_source=W0FHo_DCPg17nE7p3sBQcg","review_count":8,"categories":[{"alias":"breakfast_brunch","title":"Breakfast & Brunch"},{"alias":"cafes","title":"Cafes"},{"alias":"tradamerican","title":"American (Traditional)"}],"rating":5.0,"coordinates":{"latitude":35.2625649,"longitude":-120.6973122},"transactions":[],"price":"$","location":{"address1":"11175 Los Osos Valley Rd","address2":"","address3":"","city":"San Luis Obispo","zip_code":"93405","country":"US","state":"CA","display_address":["11175 Los Osos Valley Rd","San Luis Obispo, CA 93405"]},"phone":"+18055488343","display_phone":"(805) 548-8343","distance":2072.7488858685842},{"id":"panda-express-san-luis-obispo-2","name":"Panda Express","image_url":"https://s3-media2.fl.yelpcdn.com/bphoto/NXKzdUv91Ha7TGBc89LHjw/o.jpg","is_closed":false,"url":"https://www.yelp.com/biz/panda-express-san-luis-obispo-2?adjust_creative=W0FHo_DCPg17nE7p3sBQcg&utm_campaign=yelp_api_v3&utm_medium=api_v3_business_search&utm_source=W0FHo_DCPg17nE7p3sBQcg","review_count":54,"categories":[{"alias":"chinese","title":"Chinese"},{"alias":"hotdogs","title":"Fast Food"}],"rating":3.0,"coordinates":{"latitude":35.2524454,"longitude":-120.6880602},"transactions":[],"price":"$","location":{"address1":"1508 Froom Ranch Way","address2":"","address3":"","city":"San Luis Obispo","zip_code":"93405","country":"US","state":"CA","display_address":["1508 Froom Ranch Way","San Luis Obispo, CA 93405"]},"phone":"+18055468121","display_phone":"(805) 546-8121","distance":2568.6292031501157},{"id":"panchos-mexican-foods-san-luis-obispo","name":"Pancho's Mexican Foods","image_url":"https://s3-media4.fl.yelpcdn.com/bphoto/EOiha8h7YyW47mC__6qEhA/o.jpg","is_closed":false,"url":"https://www.yelp.com/biz/panchos-mexican-foods-san-luis-obispo?adjust_creative=W0FHo_DCPg17nE7p3sBQcg&utm_campaign=yelp_api_v3&utm_medium=api_v3_business_search&utm_source=W0FHo_DCPg17nE7p3sBQcg","review_count":73,"categories":[{"alias":"mexican","title":"Mexican"}],"rating":3.0,"coordinates":{"latitude":35.2821464538574,"longitude":-120.655975341797},"transactions":["delivery"],"price":"$$","location":{"address1":"1231 Johnson Ave","address2":"","address3":"","city":"San Luis Obispo","zip_code":"93401","country":"US","state":"CA","display_address":["1231 Johnson Ave","San Luis Obispo, CA 93401"]},"phone":"+18055450994","display_phone":"(805) 545-0994","distance":2337.052690032038},{"id":"budget-cafe-san-luis-obispo","name":"Budget Cafe","image_url":"https://s3-media4.fl.yelpcdn.com/bphoto/LslN54C8Yd6WElUgs3-DVw/o.jpg","is_closed":false,"url":"https://www.yelp.com/biz/budget-cafe-san-luis-obispo?adjust_creative=W0FHo_DCPg17nE7p3sBQcg&utm_campaign=yelp_api_v3&utm_medium=api_v3_business_search&utm_source=W0FHo_DCPg17nE7p3sBQcg","review_count":47,"categories":[{"alias":"cafes","title":"Cafes"}],"rating":3.0,"coordinates":{"latitude":35.25801,"longitude":-120.66803},"transactions":["pickup"],"price":"$","location":{"address1":"3121 S Higuera St","address2":"Ste J","address3":"","city":"San Luis Obispo","zip_code":"93401","country":"US","state":"CA","display_address":["3121 S Higuera St","Ste J","San Luis Obispo, CA 93401"]},"phone":"+18055435024","display_phone":"(805) 543-5024","distance":2189.552272980986},{"id":"mcdonalds-san-luis-obispo-2","name":"McDonald's","image_url":"https://s3-media3.fl.yelpcdn.com/bphoto/dmAWIgnySY_7DL7PCf11VQ/o.jpg","is_closed":false,"url":"https://www.yelp.com/biz/mcdonalds-san-luis-obispo-2?adjust_creative=W0FHo_DCPg17nE7p3sBQcg&utm_campaign=yelp_api_v3&utm_medium=api_v3_business_search&utm_source=W0FHo_DCPg17nE7p3sBQcg","review_count":69,"categories":[{"alias":"hotdogs","title":"Fast Food"},{"alias":"burgers","title":"Burgers"},{"alias":"coffee","title":"Coffee & Tea"}],"rating":2.5,"coordinates":{"latitude":35.262899,"longitude":-120.677432},"transactions":[],"price":"$","location":{"address1":"275 Madonna Rd","address2":"Ste 2","address3":"","city":"San Luis Obispo","zip_code":"93401","country":"US","state":"CA","display_address":["275 Madonna Rd","Ste 2","San Luis Obispo, CA 93401"]},"phone":"+18055433550","display_phone":"(805) 543-3550","distance":1376.160349922018},{"id":"dennys-san-luis-obispo","name":"Denny's","image_url":"https://s3-media4.fl.yelpcdn.com/bphoto/bcBEPyPc_uzgJ2BJF0jacA/o.jpg","is_closed":false,"url":"https://www.yelp.com/biz/dennys-san-luis-obispo?adjust_creative=W0FHo_DCPg17nE7p3sBQcg&utm_campaign=yelp_api_v3&utm_medium=api_v3_business_search&utm_source=W0FHo_DCPg17nE7p3sBQcg","review_count":63,"categories":[{"alias":"breakfast_brunch","title":"Breakfast & Brunch"},{"alias":"tradamerican","title":"American (Traditional)"},{"alias":"diners","title":"Diners"}],"rating":2.5,"coordinates":{"latitude":35.2642538921323,"longitude":-120.676713378007},"transactions":[],"price":"$","location":{"address1":"208 Madonna Rd","address2":"","address3":"","city":"San Luis Obispo","zip_code":"93405","country":"US","state":"CA","display_address":["208 Madonna Rd","San Luis Obispo, CA 93405"]},"phone":"+18055433138","display_phone":"(805) 543-3138","distance":1244.3695532392978},{"id":"edna-valley-market-san-luis-obispo","name":"Edna Valley Market","image_url":"https://s3-media3.fl.yelpcdn.com/bphoto/qTGqXSUgHovS0tB4sAfl6A/o.jpg","is_closed":false,"url":"https://www.yelp.com/biz/edna-valley-market-san-luis-obispo?adjust_creative=W0FHo_DCPg17nE7p3sBQcg&utm_campaign=yelp_api_v3&utm_medium=api_v3_business_search&utm_source=W0FHo_DCPg17nE7p3sBQcg","review_count":38,"categories":[{"alias":"delis","title":"Delis"}],"rating":3.5,"coordinates":{"latitude":35.2479714900255,"longitude":-120.642880126834},"transactions":[],"price":"$","location":{"address1":"4021 Broad St","address2":"","address3":"","city":"San Luis Obispo","zip_code":"93401","country":"US","state":"CA","display_address":["4021 Broad St","San Luis Obispo, CA 93401"]},"phone":"+18055431222","display_phone":"(805) 543-1222","distance":4541.75236141796},{"id":"sinsheimer-park-san-luis-obispo","name":"Sinsheimer Park","image_url":"https://s3-media4.fl.yelpcdn.com/bphoto/j7IqQPd1VdHdh7V6PxVMuw/o.jpg","is_closed":false,"url":"https://www.yelp.com/biz/sinsheimer-park-san-luis-obispo?adjust_creative=W0FHo_DCPg17nE7p3sBQcg&utm_campaign=yelp_api_v3&utm_medium=api_v3_business_search&utm_source=W0FHo_DCPg17nE7p3sBQcg","review_count":9,"categories":[{"alias":"discgolf","title":"Disc Golf"},{"alias":"parks","title":"Parks"}],"rating":5.0,"coordinates":{"latitude":35.2677478349837,"longitude":-120.646915662884},"transactions":[],"location":{"address1":"2547 Boulevard Del Campo","address2":"","address3":"","city":"San Luis Obispo","zip_code":"93401","country":"US","state":"CA","display_address":["2547 Boulevard Del Campo","San Luis Obispo, CA 93401"]},"phone":"","display_phone":"","distance":3141.8971481207277},{"id":"taco-bell-san-luis-obispo","name":"Taco Bell","image_url":"https://s3-media1.fl.yelpcdn.com/bphoto/mXzlwGv30hZ1AIBCqDucJg/o.jpg","is_closed":false,"url":"https://www.yelp.com/biz/taco-bell-san-luis-obispo?adjust_creative=W0FHo_DCPg17nE7p3sBQcg&utm_campaign=yelp_api_v3&utm_medium=api_v3_business_search&utm_source=W0FHo_DCPg17nE7p3sBQcg","review_count":57,"categories":[{"alias":"hotdogs","title":"Fast Food"},{"alias":"tex-mex","title":"Tex-Mex"},{"alias":"mexican","title":"Mexican"}],"rating":3.0,"coordinates":{"latitude":35.288089,"longitude":-120.664507},"transactions":[],"price":"$","location":{"address1":"397 Santa Rosa","address2":"","address3":"","city":"San Luis Obispo","zip_code":"93401","country":"US","state":"CA","display_address":["397 Santa Rosa","San Luis Obispo, CA 93401"]},"phone":"+18055441700","display_phone":"(805) 544-1700","distance":2042.7056313147218},{"id":"ihop-san-luis-obispo-2","name":"IHOP","image_url":"https://s3-media2.fl.yelpcdn.com/bphoto/Rc1UMzO4wdTgZ2uyyKFKqA/o.jpg","is_closed":false,"url":"https://www.yelp.com/biz/ihop-san-luis-obispo-2?adjust_creative=W0FHo_DCPg17nE7p3sBQcg&utm_campaign=yelp_api_v3&utm_medium=api_v3_business_search&utm_source=W0FHo_DCPg17nE7p3sBQcg","review_count":83,"categories":[{"alias":"breakfast_brunch","title":"Breakfast & Brunch"},{"alias":"tradamerican","title":"American (Traditional)"}],"rating":2.5,"coordinates":{"latitude":35.2637041,"longitude":-120.6775033},"transactions":[],"price":"$$","location":{"address1":"212 Madonna Rd","address2":"","address3":"","city":"San Luis Obispo","zip_code":"93405","country":"US","state":"CA","display_address":["212 Madonna Rd","San Luis Obispo, CA 93405"]},"phone":"+18055479140","display_phone":"(805) 547-9140","distance":1287.1124369119818},{"id":"deli-delicious-san-luis-obispo","name":"Deli Delicious","image_url":"https://s3-media4.fl.yelpcdn.com/bphoto/I60xIBZ7SpIvRKTemGfN5Q/o.jpg","is_closed":false,"url":"https://www.yelp.com/biz/deli-delicious-san-luis-obispo?adjust_creative=W0FHo_DCPg17nE7p3sBQcg&utm_campaign=yelp_api_v3&utm_medium=api_v3_business_search&utm_source=W0FHo_DCPg17nE7p3sBQcg","review_count":25,"categories":[{"alias":"sandwiches","title":"Sandwiches"},{"alias":"delis","title":"Delis"}],"rating":4.0,"coordinates":{"latitude":35.294565,"longitude":-120.670492},"transactions":["delivery"],"price":"$","location":{"address1":"862 E Foothill Blvd","address2":"","address3":null,"city":"San Luis Obispo","zip_code":"93405","country":"US","state":"CA","display_address":["862 E Foothill Blvd","San Luis Obispo, CA 93405"]},"phone":"+18055488790","display_phone":"(805) 548-8790","distance":2347.9266539211358},{"id":"wingstop-san-luis-obispo-2","name":"Wingstop","image_url":"https://s3-media4.fl.yelpcdn.com/bphoto/7GBynLSVSXT0XkaaI-OktQ/o.jpg","is_closed":false,"url":"https://www.yelp.com/biz/wingstop-san-luis-obispo-2?adjust_creative=W0FHo_DCPg17nE7p3sBQcg&utm_campaign=yelp_api_v3&utm_medium=api_v3_business_search&utm_source=W0FHo_DCPg17nE7p3sBQcg","review_count":38,"categories":[{"alias":"chicken_wings","title":"Chicken Wings"}],"rating":3.5,"coordinates":{"latitude":35.2800827026367,"longitude":-120.663299560547},"transactions":[],"price":"$","location":{"address1":"1029 Chorro St","address2":"","address3":"","city":"San Luis Obispo","zip_code":"93401","country":"US","state":"CA","display_address":["1029 Chorro St","San Luis Obispo, CA 93401"]},"phone":"+18055419464","display_phone":"(805) 541-9464","distance":1648.475582663494},{"id":"starbucks-san-luis-obispo-6","name":"Starbucks","image_url":"https://s3-media4.fl.yelpcdn.com/bphoto/cbpLY6PEMs7A_ys1w4oRww/o.jpg","is_closed":false,"url":"https://www.yelp.com/biz/starbucks-san-luis-obispo-6?adjust_creative=W0FHo_DCPg17nE7p3sBQcg&utm_campaign=yelp_api_v3&utm_medium=api_v3_business_search&utm_source=W0FHo_DCPg17nE7p3sBQcg","review_count":32,"categories":[{"alias":"coffee","title":"Coffee & Tea"}],"rating":3.0,"coordinates":{"latitude":35.2937049865723,"longitude":-120.670783996582},"transactions":[],"price":"$","location":{"address1":"17 Chorro St","address2":"Ste D","address3":"","city":"San Luis Obispo","zip_code":"93405","country":"US","state":"CA","display_address":["17 Chorro St","Ste D","San Luis Obispo, CA 93405"]},"phone":"+18055479054","display_phone":"(805) 547-9054","distance":2243.5702478940316},{"id":"wine-shed-san-luis-obispo","name":"Wine Shed","image_url":"https://s3-media2.fl.yelpcdn.com/bphoto/9u49k7S4dEu-gURFT3cjXw/o.jpg","is_closed":false,"url":"https://www.yelp.com/biz/wine-shed-san-luis-obispo?adjust_creative=W0FHo_DCPg17nE7p3sBQcg&utm_campaign=yelp_api_v3&utm_medium=api_v3_business_search&utm_source=W0FHo_DCPg17nE7p3sBQcg","review_count":32,"categories":[{"alias":"wine_bars","title":"Wine Bars"},{"alias":"lounges","title":"Lounges"}],"rating":4.0,"coordinates":{"latitude":35.254658,"longitude":-120.64576},"transactions":[],"price":"$$","location":{"address1":"3590 Broad St","address2":"","address3":"","city":"San Luis Obispo","zip_code":"93401","country":"US","state":"CA","display_address":["3590 Broad St","San Luis Obispo, CA 93401"]},"phone":"+18055439463","display_phone":"(805) 543-9463","distance":3873.1906500692917},{"id":"spirit-of-san-luis-restaurant-san-luis-obispo","name":"Spirit of San Luis Restaurant","image_url":"https://s3-media4.fl.yelpcdn.com/bphoto/SG5XC0c9wOnvEvXqMGKpDg/o.jpg","is_closed":false,"url":"https://www.yelp.com/biz/spirit-of-san-luis-restaurant-san-luis-obispo?adjust_creative=W0FHo_DCPg17nE7p3sBQcg&utm_campaign=yelp_api_v3&utm_medium=api_v3_business_search&utm_source=W0FHo_DCPg17nE7p3sBQcg","review_count":74,"categories":[{"alias":"tradamerican","title":"American (Traditional)"}],"rating":3.5,"coordinates":{"latitude":35.2387733459473,"longitude":-120.640228271484},"transactions":[],"price":"$$","location":{"address1":"925 Airport Dr","address2":"","address3":"","city":"San Luis Obispo","zip_code":"93401","country":"US","state":"CA","display_address":["925 Airport Dr","San Luis Obispo, CA 93401"]},"phone":"+18055499466","display_phone":"(805) 549-9466","distance":5419.763323150054},{"id":"south-hills-open-space-san-luis-obispo","name":"South Hills Open Space","image_url":"https://s3-media4.fl.yelpcdn.com/bphoto/xRsHbtumAEV5wRaGjXTLtQ/o.jpg","is_closed":false,"url":"https://www.yelp.com/biz/south-hills-open-space-san-luis-obispo?adjust_creative=W0FHo_DCPg17nE7p3sBQcg&utm_campaign=yelp_api_v3&utm_medium=api_v3_business_search&utm_source=W0FHo_DCPg17nE7p3sBQcg","review_count":5,"categories":[{"alias":"hiking","title":"Hiking"},{"alias":"parks","title":"Parks"}],"rating":5.0,"coordinates":{"latitude":35.2663260486009,"longitude":-120.664407343994},"transactions":[],"location":{"address1":"","address2":"","address3":"","city":"San Luis Obispo","zip_code":"93401","country":"US","state":"CA","display_address":["San Luis Obispo, CA 93401"]},"phone":"","display_phone":"","distance":1742.032534507622},{"id":"pancho-villas-san-luis-obispo","name":"Pancho Villa's","image_url":"https://s3-media4.fl.yelpcdn.com/bphoto/HUVBhDjA7jgPOdjGWUolUg/o.jpg","is_closed":false,"url":"https://www.yelp.com/biz/pancho-villas-san-luis-obispo?adjust_creative=W0FHo_DCPg17nE7p3sBQcg&utm_campaign=yelp_api_v3&utm_medium=api_v3_business_search&utm_source=W0FHo_DCPg17nE7p3sBQcg","review_count":43,"categories":[{"alias":"mexican","title":"Mexican"}],"rating":3.0,"coordinates":{"latitude":35.2937615,"longitude":-120.6680934},"transactions":[],"price":"$","location":{"address1":"5 Santa Rosa St","address2":"","address3":"","city":"San Luis Obispo","zip_code":"93401","country":"US","state":"CA","display_address":["5 Santa Rosa St","San Luis Obispo, CA 93401"]},"phone":"+18057864798","display_phone":"(805) 786-4798","distance":2360.71310178307}],"total":300,"region":{"center":{"longitude":-120.6803512573,"latitude":35.2750434489}}}
