
{"businesses":[{"id":"mitchell-park-san-luis-obispo","name":"Mitchell Park","image_url":"https://s3-media2.fl.yelpcdn.com/bphoto/5M2PwOY9UHLbLd2n3Z358Q/o.jpg","is_closed":false,"url":"https://www.yelp.com/biz/mitchell-park-san-luis-obispo?adjust_creative=W0FHo_DCPg17nE7p3sBQcg&utm_campaign=yelp_api_v3&utm_medium=api_v3_business_search&utm_source=W0FHo_DCPg17nE7p3sBQcg","review_count":9,"categories":[{"alias":"parks","title":"Parks"},{"alias":"playgrounds","title":"Playgrounds"}],"rating":4.0,"coordinates":{"latitude":35.27887,"longitude":-120.657677},"transactions":[],"location":{"address1":"1445 Santa Rosa St","address2":"","address3":"","city":"San Luis Obispo","zip_code":"93401","country":"US","state":"CA","display_address":["1445 Santa Rosa St","San Luis Obispo, CA 93401"]},"phone":"","display_phone":"","distance":2101.977630113016},{"id":"panda-express-san-luis-obispo","name":"Panda Express","image_url":"https://s3-media1.fl.yelpcdn.com/bphoto/eix5NOHX47qrCmnT5AEoiA/o.jpg","is_closed":false,"url":"https://www.yelp.com/biz/panda-express-san-luis-obispo?adjust_creative=W0FHo_DCPg17nE7p3sBQcg&utm_campaign=yelp_api_v3&utm_medium=api_v3_business_search&utm_source=W0FHo_DCPg17nE7p3sBQcg","review_count":51,"categories":[{"alias":"chinese","title":"Chinese"},{"alias":"hotdogs","title":"Fast Food"}],"rating":3.0,"coordinates":{"latitude":35.293879456669,"longitude":-120.67235104155},"transactions":[],"price":"$","location":{"address1":"789 E Foothill Blvd","address2":null,"address3":"","city":"San Luis Obispo","zip_code":"93405","country":"US","state":"CA","display_address":["789 E Foothill Blvd","San Luis Obispo, CA 93405"]},"phone":"+18057840355","display_phone":"(805) 784-0355","distance":2216.776577174322},{"id":"starbucks-san-luis-obispo-3","name":"Starbucks","image_url":"https://s3-media2.fl.yelpcdn.com/bphoto/w8i18Q25JKGLVRoO7MobWA/o.jpg","is_closed":false,"url":"https://www.yelp.com/biz/starbucks-san-luis-obispo-3?adjust_creative=W0FHo_DCPg17nE7p3sBQcg&utm_campaign=yelp_api_v3&utm_medium=api_v3_business_search&utm_source=W0FHo_DCPg17nE7p3sBQcg","review_count":43,"categories":[{"alias":"coffee","title":"Coffee & Tea"}],"rating":2.5,"coordinates":{"latitude":35.2798632210525,"longitude":-120.661753397764},"transactions":[],"price":"$","location":{"address1":"885 Higuera St","address2":"Ste C","address3":null,"city":"San Luis Obispo","zip_code":"93401","country":"US","state":"CA","display_address":["885 Higuera St","Ste C","San Luis Obispo, CA 93401"]},"phone":"+18055470465","display_phone":"(805) 547-0465","distance":1771.255959883354},{"id":"crossroads-liquor-and-deli-san-luis-obispo-2","name":"Crossroads Liquor & Deli","image_url":"https://s3-media2.fl.yelpcdn.com/bphoto/fsVUFwQMrDmIYmHbhFs9SQ/o.jpg","is_closed":false,"url":"https://www.yelp.com/biz/crossroads-liquor-and-deli-san-luis-obispo-2?adjust_creative=W0FHo_DCPg17nE7p3sBQcg&utm_campaign=yelp_api_v3&utm_medium=api_v3_business_search&utm_source=W0FHo_DCPg17nE7p3sBQcg","review_count":19,"categories":[{"alias":"beer_and_wine","title":"Beer, Wine & Spirits"},{"alias":"delis","title":"Delis"}],"rating":4.0,"coordinates":{"latitude":35.2608985900879,"longitude":-120.650451660156},"transactions":[],"price":"$","location":{"address1":"3211 Broad St","address2":"Ste 101","address3":"","city":"San Luis Obispo","zip_code":"93401","country":"US","state":"CA","display_address":["3211 Broad St","Ste 101","San Luis Obispo, CA 93401"]},"phone":"+18055440929","display_phone":"(805) 544-0929","distance":3144.350254943886},{"id":"dominos-pizza-san-luis-obispo","name":"Domino's Pizza","image_url":"https://s3-media1.fl.yelpcdn.com/bphoto/Bbp4ohSu8PjkKRpvkXqslg/o.jpg","is_closed":false,"url":"https://www.yelp.com/biz/dominos-pizza-san-luis-obispo?adjust_creative=W0FHo_DCPg17nE7p3sBQcg&utm_campaign=yelp_api_v3&utm_medium=api_v3_business_search&utm_source=W0FHo_DCPg17nE7p3sBQcg","review_count":61,"categories":[{"alias":"pizza","title":"Pizza"},{"alias":"chicken_wings","title":"Chicken Wings"},{"alias":"sandwiches","title":"Sandwiches"}],"rating":2.5,"coordinates":{"latitude":35.2944,"longitude":-120.67055},"transactions":["delivery","pickup"],"price":"$$","location":{"address1":"866 E Foothill Blvd","address2":"","address3":"","city":"San Luis Obispo","zip_code":"93405","country":"US","state":"CA","display_address":["866 E Foothill Blvd","San Luis Obispo, CA 93405"]},"phone":"+18055443636","display_phone":"(805) 544-3636","distance":2339.842964528708},{"id":"santa-rosa-park-san-luis-obispo","name":"Santa Rosa Park","image_url":"https://s3-media3.fl.yelpcdn.com/bphoto/rbgptTt3jt2pOp4d0-nwnw/o.jpg","is_closed":false,"url":"https://www.yelp.com/biz/santa-rosa-park-san-luis-obispo?adjust_creative=W0FHo_DCPg17nE7p3sBQcg&utm_campaign=yelp_api_v3&utm_medium=api_v3_business_search&utm_source=W0FHo_DCPg17nE7p3sBQcg","review_count":14,"categories":[{"alias":"parks","title":"Parks"}],"rating":3.5,"coordinates":{"latitude":35.2891199,"longitude":-120.66567},"transactions":[],"location":{"address1":"Santa Rosa & Oak St","address2":"","address3":"","city":"San Luis Obispo","zip_code":"93405","country":"US","state":"CA","display_address":["Santa Rosa & Oak St","San Luis Obispo, CA 93405"]},"phone":"+18057817287","display_phone":"(805) 781-7287","distance":2052.147762026206},{"id":"poke-chef-san-luis-obispo-4","name":"Poke Chef","image_url":"https://s3-media1.fl.yelpcdn.com/bphoto/pa7Z7Gly5YILZ_BDhyrU9w/o.jpg","is_closed":false,"url":"https://www.yelp.com/biz/poke-chef-san-luis-obispo-4?adjust_creative=W0FHo_DCPg17nE7p3sBQcg&utm_campaign=yelp_api_v3&utm_medium=api_v3_business_search&utm_source=W0FHo_DCPg17nE7p3sBQcg","review_count":16,"categories":[{"alias":"poke","title":"Poke"},{"alias":"asianfusion","title":"Asian Fusion"},{"alias":"bubbletea","title":"Bubble Tea"}],"rating":4.5,"coordinates":{"latitude":35.2690479925171,"longitude":-120.655009411275},"transactions":[],"price":"$$","location":{"address1":"2252 Broad St","address2":"Ste 130","address3":null,"city":"San Luis Obispo","zip_code":"93401","country":"US","state":"CA","display_address":["2252 Broad St","Ste 130","San Luis Obispo, CA 93401"]},"phone":"+18059960018","display_phone":"(805) 996-0018","distance":2395.219755576096},{"id":"armandos-restaurant-san-luis-obispo","name":"Armando's Restaurant","image_url":"https://s3-media4.fl.yelpcdn.com/bphoto/P6Z2yc4Twb4H--p91cYMfg/o.jpg","is_closed":false,"url":"https://www.yelp.com/biz/armandos-restaurant-san-luis-obispo?adjust_creative=W0FHo_DCPg17nE7p3sBQcg&utm_campaign=yelp_api_v3&utm_medium=api_v3_business_search&utm_source=W0FHo_DCPg17nE7p3sBQcg","review_count":24,"categories":[{"alias":"mexican","title":"Mexican"},{"alias":"seafood","title":"Seafood"}],"rating":4.0,"coordinates":{"latitude":35.28725,"longitude":-120.66566},"transactions":[],"price":"$$","location":{"address1":"1000 Olive Dr","address2":null,"address3":"","city":"San Luis Obispo","zip_code":"93405","country":"US","state":"CA","display_address":["1000 Olive Dr","San Luis Obispo, CA 93405"]},"phone":"+18055922440","display_phone":"(805) 592-2440","distance":1912.971158195358},{"id":"the-mandala-tree-san-luis-obispo-2","name":"The Mandala Tree","image_url":"https://s3-media3.fl.yelpcdn.com/bphoto/fUzATlJmEKzdv_Xl7PXrlg/o.jpg","is_closed":false,"url":"https://www.yelp.com/biz/the-mandala-tree-san-luis-obispo-2?adjust_creative=W0FHo_DCPg17nE7p3sBQcg&utm_campaign=yelp_api_v3&utm_medium=api_v3_business_search&utm_source=W0FHo_DCPg17nE7p3sBQcg","review_count":6,"categories":[{"alias":"massage_therapy","title":"Massage Therapy"},{"alias":"coffee","title":"Coffee & Tea"}],"rating":5.0,"coordinates":{"latitude":35.295485,"longitude":-120.673452},"transactions":[],"price":"$","location":{"address1":"200 Ferrini Rd","address2":"","address3":"","city":"San Luis Obispo","zip_code":"93405","country":"US","state":"CA","display_address":["200 Ferrini Rd","San Luis Obispo, CA 93405"]},"phone":"+18057080206","display_phone":"(805) 708-0206","distance":2357.68076082431},{"id":"the-graduate-san-luis-obispo","name":"The Graduate","image_url":"https://s3-media1.fl.yelpcdn.com/bphoto/mwqrDgONzYGoVwPO5_cfOg/o.jpg","is_closed":false,"url":"https://www.yelp.com/biz/the-graduate-san-luis-obispo?adjust_creative=W0FHo_DCPg17nE7p3sBQcg&utm_campaign=yelp_api_v3&utm_medium=api_v3_business_search&utm_source=W0FHo_DCPg17nE7p3sBQcg","review_count":81,"categories":[{"alias":"burgers","title":"Burgers"},{"alias":"bars","title":"Bars"}],"rating":2.5,"coordinates":{"latitude":35.2536034094863,"longitude":-120.639025149099},"transactions":[],"price":"$$","location":{"address1":"990 Industrial Way","address2":"","address3":"","city":"San Luis Obispo","zip_code":"93401","country":"US","state":"CA","display_address":["990 Industrial Way","San Luis Obispo, CA 93401"]},"phone":"+18055410969","display_phone":"(805) 541-0969","distance":4445.347841607558},{"id":"jersey-mikes-subs-san-luis-obispo","name":"Jersey Mike's Subs","image_url":"https://s3-media2.fl.yelpcdn.com/bphoto/VGdUpmywg2diHJrWImGSaw/o.jpg","is_closed":false,"url":"https://www.yelp.com/biz/jersey-mikes-subs-san-luis-obispo?adjust_creative=W0FHo_DCPg17nE7p3sBQcg&utm_campaign=yelp_api_v3&utm_medium=api_v3_business_search&utm_source=W0FHo_DCPg17nE7p3sBQcg","review_count":33,"categories":[{"alias":"sandwiches","title":"Sandwiches"},{"alias":"hotdogs","title":"Fast Food"},{"alias":"delis","title":"Delis"}],"rating":3.0,"coordinates":{"latitude":35.2494396,"longitude":-120.6421288},"transactions":[],"price":"$","location":{"address1":"3940 Broad St","address2":"Ste 1","address3":"","city":"San Luis Obispo","zip_code":"93401","country":"US","state":"CA","display_address":["3940 Broad St","Ste 1","San Luis Obispo, CA 93401"]},"phone":"+18054391234","display_phone":"(805) 439-1234","distance":4488.717432531834},{"id":"burger-king-san-luis-obispo","name":"Burger King","image_url":"https://s3-media4.fl.yelpcdn.com/bphoto/mfi2SOFTQC8N37cYcBNV3Q/o.jpg","is_closed":false,"url":"https://www.yelp.com/biz/burger-king-san-luis-obispo?adjust_creative=W0FHo_DCPg17nE7p3sBQcg&utm_campaign=yelp_api_v3&utm_medium=api_v3_business_search&utm_source=W0FHo_DCPg17nE7p3sBQcg","review_count":18,"categories":[{"alias":"hotdogs","title":"Fast Food"},{"alias":"burgers","title":"Burgers"}],"rating":3.0,"coordinates":{"latitude":35.256978,"longitude":-120.6902844},"transactions":[],"price":"$","location":{"address1":"1358 Madonna Rd","address2":"","address3":"","city":"San Luis Obispo","zip_code":"93405","country":"US","state":"CA","display_address":["1358 Madonna Rd","San Luis Obispo, CA 93405"]},"phone":"+18055414902","display_phone":"(805) 541-4902","distance":2131.249880450338},{"id":"jack-in-the-box-san-luis-obispo","name":"Jack in the Box","image_url":"https://s3-media4.fl.yelpcdn.com/bphoto/qnoG9fLj22-QDS1mqB07Kw/o.jpg","is_closed":false,"url":"https://www.yelp.com/biz/jack-in-the-box-san-luis-obispo?adjust_creative=W0FHo_DCPg17nE7p3sBQcg&utm_campaign=yelp_api_v3&utm_medium=api_v3_business_search&utm_source=W0FHo_DCPg17nE7p3sBQcg","review_count":29,"categories":[{"alias":"hotdogs","title":"Fast Food"}],"rating":2.0,"coordinates":{"latitude":35.2879333496094,"longitude":-120.664054870605},"transactions":[],"price":"$","location":{"address1":"390 Santa Rosa St","address2":"","address3":"","city":"San Luis Obispo","zip_code":"93405","country":"US","state":"CA","display_address":["390 Santa Rosa St","San Luis Obispo, CA 93405"]},"phone":"+18055470852","display_phone":"(805) 547-0852","distance":2042.2775920971758},{"id":"carls-jr-restaurants-sn-luis-obisp","name":"Carl's Jr Restaurants","image_url":"https://s3-media2.fl.yelpcdn.com/bphoto/mDINkmtmWJYygqdyTmFgpw/o.jpg","is_closed":false,"url":"https://www.yelp.com/biz/carls-jr-restaurants-sn-luis-obisp?adjust_creative=W0FHo_DCPg17nE7p3sBQcg&utm_campaign=yelp_api_v3&utm_medium=api_v3_business_search&utm_source=W0FHo_DCPg17nE7p3sBQcg","review_count":17,"categories":[{"alias":"hotdogs","title":"Fast Food"}],"rating":3.5,"coordinates":{"latitude":35.2496101057634,"longitude":-120.643280326584},"transactions":[],"price":"$","location":{"address1":"3980 Broad St","address2":"","address3":"","city":"Sn Luis Obisp","zip_code":"93401","country":"US","state":"CA","display_address":["3980 Broad St","Sn Luis Obisp, CA 93401"]},"phone":"+18057880510","display_phone":"(805) 788-0510","distance":4396.163319826352},{"id":"courthouse-cafeteria-san-luis-obispo","name":"Courthouse Cafeteria","image_url":"https://s3-media3.fl.yelpcdn.com/bphoto/FFOC_-b1zkEnkqwDLRRlLw/o.jpg","is_closed":false,"url":"https://www.yelp.com/biz/courthouse-cafeteria-san-luis-obispo?adjust_creative=W0FHo_DCPg17nE7p3sBQcg&utm_campaign=yelp_api_v3&utm_medium=api_v3_business_search&utm_source=W0FHo_DCPg17nE7p3sBQcg","review_count":5,"categories":[{"alias":"cafes","title":"Cafes"}],"rating":4.0,"coordinates":{"latitude":35.28231,"longitude":-120.66069},"transactions":[],"location":{"address1":"1050 Monterey St","address2":null,"address3":null,"city":"San Luis Obispo","zip_code":"93408","country":"US","state":"CA","display_address":["1050 Monterey St","San Luis Obispo, CA 93408"]},"phone":"+18055444800","display_phone":"(805) 544-4800","distance":1943.011450276148},{"id":"starbucks-san-luis-obispo-8","name":"Starbucks","image_url":"https://s3-media3.fl.yelpcdn.com/bphoto/BLB4j5z_I2ne9u1Bh13ABA/o.jpg","is_closed":false,"url":"https://www.yelp.com/biz/starbucks-san-luis-obispo-8?adjust_creative=W0FHo_DCPg17nE7p3sBQcg&utm_campaign=yelp_api_v3&utm_medium=api_v3_business_search&utm_source=W0FHo_DCPg17nE7p3sBQcg","review_count":19,"categories":[{"alias":"coffee","title":"Coffee & Tea"}],"rating":4.0,"coordinates":{"latitude":35.2492161892818,"longitude":-120.643035618439},"transactions":[],"price":"$$","location":{"address1":"3970 Broad St","address2":"Ste 1","address3":"","city":"San Luis Obispo","zip_code":"93401","country":"US","state":"CA","display_address":["3970 Broad St","Ste 1","San Luis Obispo, CA 93401"]},"phone":"+18055420813","display_phone":"(805) 542-0813","distance":4441.398944343044},{"id":"chick-fil-a-san-luis-obispo","name":"Chick-fil-A","image_url":"https://s3-media2.fl.yelpcdn.com/bphoto/9M5jW1qwChqdKnWL_vDtiw/o.jpg","is_closed":false,"url":"https://www.yelp.com/biz/chick-fil-a-san-luis-obispo?adjust_creative=W0FHo_DCPg17nE7p3sBQcg&utm_campaign=yelp_api_v3&utm_medium=api_v3_business_search&utm_source=W0FHo_DCPg17nE7p3sBQcg","review_count":5,"categories":[{"alias":"hotdogs","title":"Fast Food"}],"rating":5.0,"coordinates":{"latitude":35.29957,"longitude":-120.6595467},"transactions":[],"price":"$","location":{"address1":"1 Grand Ave","address2":null,"address3":null,"city":"San Luis Obispo","zip_code":"93407","country":"US","state":"CA","display_address":["1 Grand Ave","San Luis Obispo, CA 93407"]},"phone":"+18057565952","display_phone":"(805) 756-5952","distance":3317.1508797008},{"id":"padre-deli-san-luis-obispo","name":"Padre Deli","image_url":"https://s3-media3.fl.yelpcdn.com/bphoto/h6OxcuXCWpf9R9GxS0Em9g/o.jpg","is_closed":false,"url":"https://www.yelp.com/biz/padre-deli-san-luis-obispo?adjust_creative=W0FHo_DCPg17nE7p3sBQcg&utm_campaign=yelp_api_v3&utm_medium=api_v3_business_search&utm_source=W0FHo_DCPg17nE7p3sBQcg","review_count":16,"categories":[{"alias":"catering","title":"Caterers"},{"alias":"delis","title":"Delis"}],"rating":3.5,"coordinates":{"latitude":35.2563311,"longitude":-120.6688794},"transactions":[],"price":"$","location":{"address1":"3250 S Higuera St","address2":"Ste D","address3":"","city":"San Luis Obispo","zip_code":"93401","country":"US","state":"CA","display_address":["3250 S Higuera St","Ste D","San Luis Obispo, CA 93401"]},"phone":"+18055468253","display_phone":"(805) 546-8253","distance":2391.459244272368},{"id":"carls-jr-san-luis-obispo","name":"Carl's Jr","image_url":"https://s3-media3.fl.yelpcdn.com/bphoto/-EQ6NuMWjvY176_52ucEqw/o.jpg","is_closed":false,"url":"https://www.yelp.com/biz/carls-jr-san-luis-obispo?adjust_creative=W0FHo_DCPg17nE7p3sBQcg&utm_campaign=yelp_api_v3&utm_medium=api_v3_business_search&utm_source=W0FHo_DCPg17nE7p3sBQcg","review_count":26,"categories":[{"alias":"hotdogs","title":"Fast Food"}],"rating":2.0,"coordinates":{"latitude":35.2953300476074,"longitude":-120.669403076172},"transactions":[],"price":"$","location":{"address1":"195 N Santa Rosa St","address2":"","address3":"","city":"San Luis Obispo","zip_code":"93405","country":"US","state":"CA","display_address":["195 N Santa Rosa St","San Luis Obispo, CA 93405"]},"phone":"+18055420914","display_phone":"(805) 542-0914","distance":2474.893466023906},{"id":"cuesta-canyon-county-park-san-luis-obispo","name":"Cuesta Canyon County Park","image_url":"https://s3-media2.fl.yelpcdn.com/bphoto/Lfk9ovgD4bl6TxyVL9JLEg/o.jpg","is_closed":false,"url":"https://www.yelp.com/biz/cuesta-canyon-county-park-san-luis-obispo?adjust_creative=W0FHo_DCPg17nE7p3sBQcg&utm_campaign=yelp_api_v3&utm_medium=api_v3_business_search&utm_source=W0FHo_DCPg17nE7p3sBQcg","review_count":10,"categories":[{"alias":"localflavor","title":"Local Flavor"},{"alias":"dog_parks","title":"Dog Parks"}],"rating":3.5,"coordinates":{"latitude":35.2946050465107,"longitude":-120.643201991916},"transactions":[],"location":{"address1":"2798 Loomis St","address2":"","address3":"","city":"San Luis Obispo","zip_code":"93405","country":"US","state":"CA","display_address":["2798 Loomis St","San Luis Obispo, CA 93405"]},"phone":"+18057815930","display_phone":"(805) 781-5930","distance":4010.805805605464},{"id":"yelpers-love-slo-farmers-market-san-luis-obispo","name":"Yelpers Love SLO Farmers Market","image_url":"https://s3-media1.fl.yelpcdn.com/bphoto/U8nYVhHEdGOfZhYNlIhHSw/o.jpg","is_closed":false,"url":"https://www.yelp.com/biz/yelpers-love-slo-farmers-market-san-luis-obispo?adjust_creative=W0FHo_DCPg17nE7p3sBQcg&utm_campaign=yelp_api_v3&utm_medium=api_v3_business_search&utm_source=W0FHo_DCPg17nE7p3sBQcg","review_count":2,"categories":[{"alias":"yelpevents","title":"Yelp Events"}],"rating":5.0,"coordinates":{"latitude":35.2810928500006,"longitude":-120.661479479054},"transactions":[],"location":{"address1":"1075 Court St","address2":"","address3":null,"city":"San Luis Obispo","zip_code":"93401","country":"US","state":"CA","display_address":["1075 Court St","San Luis Obispo, CA 93401"]},"phone":"","display_phone":"","distance":1840.414838548832},{"id":"poly-canyon-trail-san-luis-obispo","name":"Poly Canyon Trail","image_url":"https://s3-media1.fl.yelpcdn.com/bphoto/wV3oWhgK3RBQ8l71hQxsoQ/o.jpg","is_closed":false,"url":"https://www.yelp.com/biz/poly-canyon-trail-san-luis-obispo?adjust_creative=W0FHo_DCPg17nE7p3sBQcg&utm_campaign=yelp_api_v3&utm_medium=api_v3_business_search&utm_source=W0FHo_DCPg17nE7p3sBQcg","review_count":6,"categories":[{"alias":"hiking","title":"Hiking"},{"alias":"localflavor","title":"Local Flavor"}],"rating":4.0,"coordinates":{"latitude":35.3069736174957,"longitude":-120.656971901884},"transactions":[],"location":{"address1":"Poly Canyon Rd","address2":"","address3":"","city":"San Luis Obispo","zip_code":"93405","country":"US","state":"CA","display_address":["Poly Canyon Rd","San Luis Obispo, CA 93405"]},"phone":"","display_phone":"","distance":4136.226015414123},{"id":"round-table-pizza-san-luis-obispo","name":"Round Table Pizza","image_url":"https://s3-media1.fl.yelpcdn.com/bphoto/KiTwAKKdPSw9t1Fy0FBiKQ/o.jpg","is_closed":false,"url":"https://www.yelp.com/biz/round-table-pizza-san-luis-obispo?adjust_creative=W0FHo_DCPg17nE7p3sBQcg&utm_campaign=yelp_api_v3&utm_medium=api_v3_business_search&utm_source=W0FHo_DCPg17nE7p3sBQcg","review_count":28,"categories":[{"alias":"pizza","title":"Pizza"},{"alias":"buffets","title":"Buffets"}],"rating":2.5,"coordinates":{"latitude":35.2455253601074,"longitude":-120.673362731934},"transactions":[],"price":"$$","location":{"address1":"3971 South Higuera Street","address2":"Ste. 120","address3":"","city":"San Luis Obispo","zip_code":"93401","country":"US","state":"CA","display_address":["3971 South Higuera Street","Ste. 120","San Luis Obispo, CA 93401"]},"phone":"+18055445551","display_phone":"(805) 544-5551","distance":3349.1044390202037},{"id":"greenhouse-grill-and-cafe-san-luis-obispo","name":"Greenhouse Grill and Cafe","image_url":"https://s3-media1.fl.yelpcdn.com/bphoto/0ZQOzvafEBzENi6Dd44UTQ/o.jpg","is_closed":false,"url":"https://www.yelp.com/biz/greenhouse-grill-and-cafe-san-luis-obispo?adjust_creative=W0FHo_DCPg17nE7p3sBQcg&utm_campaign=yelp_api_v3&utm_medium=api_v3_business_search&utm_source=W0FHo_DCPg17nE7p3sBQcg","review_count":7,"categories":[{"alias":"cafes","title":"Cafes"},{"alias":"tradamerican","title":"American (Traditional)"},{"alias":"pizza","title":"Pizza"}],"rating":3.0,"coordinates":{"latitude":35.258716,"longitude":-120.675178},"transactions":[],"price":"$$","location":{"address1":"333 Madonna Rd","address2":null,"address3":"","city":"San Luis Obispo","zip_code":"93401","country":"US","state":"CA","display_address":["333 Madonna Rd","San Luis Obispo, CA 93401"]},"phone":"+18055490800","display_phone":"(805) 549-0800","distance":1835.8037625697857},{"id":"taqueria-805-san-luis-obispo","name":"Taqueria 805","image_url":"https://s3-media1.fl.yelpcdn.com/bphoto/qwgSQYMwR8GR78R0Sl5mNA/o.jpg","is_closed":false,"url":"https://www.yelp.com/biz/taqueria-805-san-luis-obispo?adjust_creative=W0FHo_DCPg17nE7p3sBQcg&utm_campaign=yelp_api_v3&utm_medium=api_v3_business_search&utm_source=W0FHo_DCPg17nE7p3sBQcg","review_count":8,"categories":[{"alias":"foodtrucks","title":"Food Trucks"},{"alias":"tacos","title":"Tacos"},{"alias":"catering","title":"Caterers"}],"rating":4.5,"coordinates":{"latitude":35.2614728,"longitude":-120.6457822},"transactions":[],"price":"$","location":{"address1":"950 Orcutt Rd","address2":"","address3":null,"city":"San Luis Obispo","zip_code":"93401","country":"US","state":"CA","display_address":["950 Orcutt Rd","San Luis Obispo, CA 93401"]},"phone":"+18052150482","display_phone":"(805) 215-0482","distance":3482.3085170527534},{"id":"front-porch-san-luis-obispo","name":"Front Porch","image_url":"","is_closed":false,"url":"https://www.yelp.com/biz/front-porch-san-luis-obispo?adjust_creative=W0FHo_DCPg17nE7p3sBQcg&utm_campaign=yelp_api_v3&utm_medium=api_v3_business_search&utm_source=W0FHo_DCPg17nE7p3sBQcg","review_count":3,"categories":[{"alias":"coffee","title":"Coffee & Tea"}],"rating":4.5,"coordinates":{"latitude":35.29749,"longitude":-120.66095},"transactions":[],"location":{"address1":"1468 Foothill Blvd","address2":"","address3":null,"city":"San Luis Obispo","zip_code":"93405","country":"US","state":"CA","display_address":["1468 Foothill Blvd","San Luis Obispo, CA 93405"]},"phone":"+18187314984","display_phone":"(818) 731-4984","distance":3046.8231442007677},{"id":"subway-san-luis-obispo","name":"Subway","image_url":"https://s3-media4.fl.yelpcdn.com/bphoto/MoJg0fqbVXXiFVTW_g3gIQ/o.jpg","is_closed":false,"url":"https://www.yelp.com/biz/subway-san-luis-obispo?adjust_creative=W0FHo_DCPg17nE7p3sBQcg&utm_campaign=yelp_api_v3&utm_medium=api_v3_business_search&utm_source=W0FHo_DCPg17nE7p3sBQcg","review_count":7,"categories":[{"alias":"sandwiches","title":"Sandwiches"},{"alias":"hotdogs","title":"Fast Food"}],"rating":4.0,"coordinates":{"latitude":35.3011214143258,"longitude":-120.663512045144},"transactions":[],"price":"$","location":{"address1":"1 Grand Ave","address2":"","address3":"","city":"San Luis Obispo","zip_code":"93407","country":"US","state":"CA","display_address":["1 Grand Ave","San Luis Obispo, CA 93407"]},"phone":"+18057567829","display_phone":"(805) 756-7829","distance":3277.869436437614},{"id":"subway-san-luis-obispo-5","name":"Subway","image_url":"https://s3-media2.fl.yelpcdn.com/bphoto/lHdEq4piEdR4ZZ7QxSsg0A/o.jpg","is_closed":false,"url":"https://www.yelp.com/biz/subway-san-luis-obispo-5?adjust_creative=W0FHo_DCPg17nE7p3sBQcg&utm_campaign=yelp_api_v3&utm_medium=api_v3_business_search&utm_source=W0FHo_DCPg17nE7p3sBQcg","review_count":13,"categories":[{"alias":"sandwiches","title":"Sandwiches"},{"alias":"hotdogs","title":"Fast Food"}],"rating":2.5,"coordinates":{"latitude":35.25814,"longitude":-120.68974},"transactions":[],"price":"$","location":{"address1":"1350 Madonna Rd","address2":"","address3":"","city":"San Luis Obispo","zip_code":"93405","country":"US","state":"CA","display_address":["1350 Madonna Rd","San Luis Obispo, CA 93405"]},"phone":"+18057810749","display_phone":"(805) 781-0749","distance":2109.5356480674577},{"id":"throop-park-san-luis-obispo","name":"Throop Park","image_url":"https://s3-media3.fl.yelpcdn.com/bphoto/hKaO6Xjgo3GtptRBEU8e-g/o.jpg","is_closed":false,"url":"https://www.yelp.com/biz/throop-park-san-luis-obispo?adjust_creative=W0FHo_DCPg17nE7p3sBQcg&utm_campaign=yelp_api_v3&utm_medium=api_v3_business_search&utm_source=W0FHo_DCPg17nE7p3sBQcg","review_count":4,"categories":[{"alias":"parks","title":"Parks"}],"rating":4.5,"coordinates":{"latitude":35.2956220362066,"longitude":-120.676928423345},"transactions":[],"location":{"address1":"525 Cerro Romauldo","address2":"","address3":"","city":"San Luis Obispo","zip_code":"93405","country":"US","state":"CA","display_address":["525 Cerro Romauldo","San Luis Obispo, CA 93405"]},"phone":"","display_phone":"","distance":2309.226532912202},{"id":"shake-smart-san-luis-obispo","name":"Shake Smart","image_url":"https://s3-media1.fl.yelpcdn.com/bphoto/pufAf4kMw7qVgrEpV1GO9w/o.jpg","is_closed":false,"url":"https://www.yelp.com/biz/shake-smart-san-luis-obispo?adjust_creative=W0FHo_DCPg17nE7p3sBQcg&utm_campaign=yelp_api_v3&utm_medium=api_v3_business_search&utm_source=W0FHo_DCPg17nE7p3sBQcg","review_count":8,"categories":[{"alias":"juicebars","title":"Juice Bars & Smoothies"},{"alias":"acaibowls","title":"Acai Bowls"},{"alias":"sandwiches","title":"Sandwiches"}],"rating":4.5,"coordinates":{"latitude":35.2971098,"longitude":-120.6585249},"transactions":[],"location":{"address1":"101 Longview Ln","address2":null,"address3":"","city":"San Luis Obispo","zip_code":"93405","country":"US","state":"CA","display_address":["101 Longview Ln","San Luis Obispo, CA 93405"]},"phone":"+18584618313","display_phone":"(858) 461-8313","distance":3265.7580447460896},{"id":"meadow-park-san-luis-obispo","name":"Meadow Park","image_url":"https://s3-media3.fl.yelpcdn.com/bphoto/jO9rU6BgrlOoZ6rS3i5ETw/o.jpg","is_closed":false,"url":"https://www.yelp.com/biz/meadow-park-san-luis-obispo?adjust_creative=W0FHo_DCPg17nE7p3sBQcg&utm_campaign=yelp_api_v3&utm_medium=api_v3_business_search&utm_source=W0FHo_DCPg17nE7p3sBQcg","review_count":8,"categories":[{"alias":"parks","title":"Parks"}],"rating":3.0,"coordinates":{"latitude":35.268427,"longitude":-120.659232},"transactions":[],"location":{"address1":"2333 Meadow St","address2":"","address3":"","city":"San Luis Obispo","zip_code":"93401","country":"US","state":"CA","display_address":["2333 Meadow St","San Luis Obispo, CA 93401"]},"phone":"","display_phone":"","distance":2053.56111112925},{"id":"subway-san-luis-obispo-4","name":"Subway","image_url":"https://s3-media1.fl.yelpcdn.com/bphoto/rfWHHnVoEBOzPjq1gsUa2A/o.jpg","is_closed":false,"url":"https://www.yelp.com/biz/subway-san-luis-obispo-4?adjust_creative=W0FHo_DCPg17nE7p3sBQcg&utm_campaign=yelp_api_v3&utm_medium=api_v3_business_search&utm_source=W0FHo_DCPg17nE7p3sBQcg","review_count":11,"categories":[{"alias":"sandwiches","title":"Sandwiches"},{"alias":"hotdogs","title":"Fast Food"}],"rating":2.5,"coordinates":{"latitude":35.2929249,"longitude":-120.6719612},"transactions":[],"price":"$","location":{"address1":"775 Foothill Blvd","address2":"Ste B","address3":"","city":"San Luis Obispo","zip_code":"93405","country":"US","state":"CA","display_address":["775 Foothill Blvd","Ste B","San Luis Obispo, CA 93405"]},"phone":"+18055433399","display_phone":"(805) 543-3399","distance":2129.176663001266},{"id":"atrium-cafe-san-luis-obispo","name":"Atrium Cafe","image_url":"https://s3-media1.fl.yelpcdn.com/bphoto/K9021iQ0IQ0vPMyVCyIiaQ/o.jpg","is_closed":false,"url":"https://www.yelp.com/biz/atrium-cafe-san-luis-obispo?adjust_creative=W0FHo_DCPg17nE7p3sBQcg&utm_campaign=yelp_api_v3&utm_medium=api_v3_business_search&utm_source=W0FHo_DCPg17nE7p3sBQcg","review_count":4,"categories":[{"alias":"restaurants","title":"Restaurants"}],"rating":3.5,"coordinates":{"latitude":35.258716583252,"longitude":-120.675178527832},"transactions":[],"price":"$$","location":{"address1":"333 Madonna Rd","address2":"","address3":"","city":"San Luis Obispo","zip_code":"93405","country":"US","state":"CA","display_address":["333 Madonna Rd","San Luis Obispo, CA 93405"]},"phone":"+18055439521","display_phone":"(805) 543-9521","distance":1835.587477412628},{"id":"phanom-project-san-luis-obispo","name":"Phanom Project","image_url":"https://s3-media3.fl.yelpcdn.com/bphoto/IMLBrXFmxLHiCvBSQVitsg/o.jpg","is_closed":false,"url":"https://www.yelp.com/biz/phanom-project-san-luis-obispo?adjust_creative=W0FHo_DCPg17nE7p3sBQcg&utm_campaign=yelp_api_v3&utm_medium=api_v3_business_search&utm_source=W0FHo_DCPg17nE7p3sBQcg","review_count":1,"categories":[{"alias":"galleries","title":"Art Galleries"},{"alias":"localflavor","title":"Local Flavor"}],"rating":5.0,"coordinates":{"latitude":35.2785851095104,"longitude":-120.665613864065},"transactions":[],"location":{"address1":"Always A Different Pl","address2":"","address3":"","city":"San Luis Obispo","zip_code":"","country":"US","state":"CA","display_address":["Always A Different Pl","San Luis Obispo, CA"]},"phone":"","display_phone":"","distance":1394.565448867396},{"id":"subway-san-luis-obispo-6","name":"Subway","image_url":"https://s3-media1.fl.yelpcdn.com/bphoto/izZCbmrc7AvwcE60-WX5Lg/o.jpg","is_closed":false,"url":"https://www.yelp.com/biz/subway-san-luis-obispo-6?adjust_creative=W0FHo_DCPg17nE7p3sBQcg&utm_campaign=yelp_api_v3&utm_medium=api_v3_business_search&utm_source=W0FHo_DCPg17nE7p3sBQcg","review_count":11,"categories":[{"alias":"sandwiches","title":"Sandwiches"},{"alias":"hotdogs","title":"Fast Food"}],"rating":2.0,"coordinates":{"latitude":35.2691955566406,"longitude":-120.670738220215},"transactions":[],"price":"$","location":{"address1":"158 Higuera St","address2":"Ste D","address3":"","city":"San Luis Obispo","zip_code":"93401","country":"US","state":"CA","display_address":["158 Higuera St","Ste D","San Luis Obispo, CA 93401"]},"phone":"+18055410855","display_phone":"(805) 541-0855","distance":1076.2767911346339},{"id":"starbucks-san-luis-obispo-12","name":"Starbucks","image_url":"https://s3-media1.fl.yelpcdn.com/bphoto/9eM97PSdJVjHU-PUIbu7Bw/o.jpg","is_closed":false,"url":"https://www.yelp.com/biz/starbucks-san-luis-obispo-12?adjust_creative=W0FHo_DCPg17nE7p3sBQcg&utm_campaign=yelp_api_v3&utm_medium=api_v3_business_search&utm_source=W0FHo_DCPg17nE7p3sBQcg","review_count":14,"categories":[{"alias":"coffee","title":"Coffee & Tea"}],"rating":2.5,"coordinates":{"latitude":35.3032949791146,"longitude":-120.662738990205},"transactions":[],"price":"$","location":{"address1":"1 Grand Ave","address2":null,"address3":"","city":"San Luis Obispo","zip_code":"93407","country":"US","state":"CA","display_address":["1 Grand Ave","San Luis Obispo, CA 93407"]},"phone":"+18057567827","display_phone":"(805) 756-7827","distance":3524.7473735468093},{"id":"bbq-in-the-stix-santa-maria-2","name":"BBQ In The Stix","image_url":"https://s3-media3.fl.yelpcdn.com/bphoto/3wzybJyDz22pArO5g0DmZA/o.jpg","is_closed":false,"url":"https://www.yelp.com/biz/bbq-in-the-stix-santa-maria-2?adjust_creative=W0FHo_DCPg17nE7p3sBQcg&utm_campaign=yelp_api_v3&utm_medium=api_v3_business_search&utm_source=W0FHo_DCPg17nE7p3sBQcg","review_count":30,"categories":[{"alias":"foodtrucks","title":"Food Trucks"},{"alias":"bbq","title":"Barbeque"}],"rating":5.0,"coordinates":{"latitude":34.9548110961914,"longitude":-120.428657531738},"transactions":[],"price":"$$","location":{"address1":"","address2":"","address3":"","city":"Santa Maria","zip_code":"93454","country":"US","state":"CA","display_address":["Santa Maria, CA 93454"]},"phone":"+18053542401","display_phone":"(805) 354-2401","distance":42156.546029895966},{"id":"mission-pizza-san-luis-obispo","name":"Mission Pizza","image_url":"","is_closed":false,"url":"https://www.yelp.com/biz/mission-pizza-san-luis-obispo?adjust_creative=W0FHo_DCPg17nE7p3sBQcg&utm_campaign=yelp_api_v3&utm_medium=api_v3_business_search&utm_source=W0FHo_DCPg17nE7p3sBQcg","review_count":2,"categories":[{"alias":"pizza","title":"Pizza"}],"rating":4.5,"coordinates":{"latitude":35.27989,"longitude":-120.66355},"transactions":[],"location":{"address1":"The Network","address2":"","address3":"778 Higuera","city":"San Luis Obispo","zip_code":"93401","country":"US","state":"CA","display_address":["The Network","778 Higuera","San Luis Obispo, CA 93401"]},"phone":"+18055442200","display_phone":"(805) 544-2200","distance":1616.7797443391619},{"id":"slo-hub-eatery-san-luis-obispo","name":"Slo Hub Eatery","image_url":"https://s3-media3.fl.yelpcdn.com/bphoto/LlUqBqOKfyJBm648ZIOEOg/o.jpg","is_closed":false,"url":"https://www.yelp.com/biz/slo-hub-eatery-san-luis-obispo?adjust_creative=W0FHo_DCPg17nE7p3sBQcg&utm_campaign=yelp_api_v3&utm_medium=api_v3_business_search&utm_source=W0FHo_DCPg17nE7p3sBQcg","review_count":7,"categories":[{"alias":"tradamerican","title":"American (Traditional)"}],"rating":3.0,"coordinates":{"latitude":35.2476047699865,"longitude":-120.642873430526},"transactions":[],"price":"$","location":{"address1":"4051 Broad St","address2":"","address3":"","city":"San Luis Obispo","zip_code":"93401","country":"US","state":"CA","display_address":["4051 Broad St","San Luis Obispo, CA 93401"]},"phone":"","display_phone":"","distance":4570.287093397989},{"id":"julians-patisserie-san-luis-obispo","name":"Julian's Patisserie","image_url":"https://s3-media1.fl.yelpcdn.com/bphoto/28nOQGgb4ECxt0yEtIhDuQ/o.jpg","is_closed":false,"url":"https://www.yelp.com/biz/julians-patisserie-san-luis-obispo?adjust_creative=W0FHo_DCPg17nE7p3sBQcg&utm_campaign=yelp_api_v3&utm_medium=api_v3_business_search&utm_source=W0FHo_DCPg17nE7p3sBQcg","review_count":7,"categories":[{"alias":"coffee","title":"Coffee & Tea"}],"rating":2.5,"coordinates":{"latitude":35.3017548319964,"longitude":-120.663708103001},"transactions":[],"price":"$","location":{"address1":"Kennedy Library","address2":"Fl 2","address3":"","city":"San Luis Obispo","zip_code":"93405","country":"US","state":"CA","display_address":["Kennedy Library","Fl 2","San Luis Obispo, CA 93405"]},"phone":"","display_phone":"","distance":3332.2312442667157},{"id":"lc-yc-cheng-park-san-luis-obispo","name":"LC YC Cheng Park","image_url":"https://s3-media1.fl.yelpcdn.com/bphoto/gJf0rF7rmnQK136vHkQrqg/o.jpg","is_closed":false,"url":"https://www.yelp.com/biz/lc-yc-cheng-park-san-luis-obispo?adjust_creative=W0FHo_DCPg17nE7p3sBQcg&utm_campaign=yelp_api_v3&utm_medium=api_v3_business_search&utm_source=W0FHo_DCPg17nE7p3sBQcg","review_count":1,"categories":[{"alias":"parks","title":"Parks"}],"rating":5.0,"coordinates":{"latitude":35.2811164855957,"longitude":-120.658744812012},"transactions":[],"location":{"address1":"1038-1098 Marsh St","address2":"","address3":"","city":"San Luis Obispo","zip_code":"93401","country":"US","state":"CA","display_address":["1038-1098 Marsh St","San Luis Obispo, CA 93401"]},"phone":"","display_phone":"","distance":2074.318860929382},{"id":"stoneridge-park-san-luis-obispo","name":"Stoneridge Park","image_url":"https://s3-media3.fl.yelpcdn.com/bphoto/v1CJN-oqwSr6BQ2XmQPYJQ/o.jpg","is_closed":false,"url":"https://www.yelp.com/biz/stoneridge-park-san-luis-obispo?adjust_creative=W0FHo_DCPg17nE7p3sBQcg&utm_campaign=yelp_api_v3&utm_medium=api_v3_business_search&utm_source=W0FHo_DCPg17nE7p3sBQcg","review_count":2,"categories":[{"alias":"dog_parks","title":"Dog Parks"}],"rating":4.0,"coordinates":{"latitude":35.261891,"longitude":-120.654957},"transactions":[],"location":{"address1":"535 Bluerock Dr","address2":"","address3":"","city":"San Luis Obispo","zip_code":"93401","country":"US","state":"CA","display_address":["535 Bluerock Dr","San Luis Obispo, CA 93401"]},"phone":"","display_phone":"","distance":2730.179662446456},{"id":"sustenance-studio-ventura","name":"Sustenance Studio","image_url":"","is_closed":false,"url":"https://www.yelp.com/biz/sustenance-studio-ventura?adjust_creative=W0FHo_DCPg17nE7p3sBQcg&utm_campaign=yelp_api_v3&utm_medium=api_v3_business_search&utm_source=W0FHo_DCPg17nE7p3sBQcg","review_count":3,"categories":[{"alias":"cookingschools","title":"Cooking Schools"}],"rating":4.5,"coordinates":{"latitude":35.271591,"longitude":-120.656529},"transactions":[],"location":{"address1":"255 Kalarama St","address2":null,"address3":null,"city":"Ventura","zip_code":"93001","country":"US","state":"CA","display_address":["255 Kalarama St","Ventura, CA 93001"]},"phone":"+16618437790","display_phone":"(661) 843-7790","distance":2196.398063839038},{"id":"subway-san-luis-obispo-7","name":"Subway","image_url":"https://s3-media2.fl.yelpcdn.com/bphoto/3zj33H5Hj7SQLDWUBz2t5g/o.jpg","is_closed":false,"url":"https://www.yelp.com/biz/subway-san-luis-obispo-7?adjust_creative=W0FHo_DCPg17nE7p3sBQcg&utm_campaign=yelp_api_v3&utm_medium=api_v3_business_search&utm_source=W0FHo_DCPg17nE7p3sBQcg","review_count":12,"categories":[{"alias":"sandwiches","title":"Sandwiches"},{"alias":"hotdogs","title":"Fast Food"},{"alias":"breakfast_brunch","title":"Breakfast & Brunch"}],"rating":2.0,"coordinates":{"latitude":35.25985,"longitude":-120.64844},"transactions":[],"price":"$","location":{"address1":"3240 Broad St","address2":null,"address3":null,"city":"San Luis Obispo","zip_code":"93401","country":"US","state":"CA","display_address":["3240 Broad St","San Luis Obispo, CA 93401"]},"phone":"+18057880558","display_phone":"(805) 788-0558","distance":3355.44644305026},{"id":"taco-bell-san-luis-obispo-2","name":"Taco Bell","image_url":"https://s3-media3.fl.yelpcdn.com/bphoto/lSjeQM87RucoimZqxTEU5Q/o.jpg","is_closed":false,"url":"https://www.yelp.com/biz/taco-bell-san-luis-obispo-2?adjust_creative=W0FHo_DCPg17nE7p3sBQcg&utm_campaign=yelp_api_v3&utm_medium=api_v3_business_search&utm_source=W0FHo_DCPg17nE7p3sBQcg","review_count":22,"categories":[{"alias":"hotdogs","title":"Fast Food"},{"alias":"mexican","title":"Mexican"},{"alias":"tex-mex","title":"Tex-Mex"}],"rating":1.5,"coordinates":{"latitude":35.2501598259837,"longitude":-120.643589405386},"transactions":[],"price":"$","location":{"address1":"Marigold Shopping Center","address2":"3810 Broad Street  Suite 1","address3":"","city":"San Luis Obispo","zip_code":"93401","country":"US","state":"CA","display_address":["Marigold Shopping Center","3810 Broad Street  Suite 1","San Luis Obispo, CA 93401"]},"phone":"+18055930205","display_phone":"(805) 593-0205","distance":4335.442812030298},{"id":"mos-smokehouse-bbq-sn-luis-obisp","name":"Mo's Smokehouse BBQ","image_url":"","is_closed":false,"url":"https://www.yelp.com/biz/mos-smokehouse-bbq-sn-luis-obisp?adjust_creative=W0FHo_DCPg17nE7p3sBQcg&utm_campaign=yelp_api_v3&utm_medium=api_v3_business_search&utm_source=W0FHo_DCPg17nE7p3sBQcg","review_count":4,"categories":[{"alias":"bbq","title":"Barbeque"}],"rating":3.5,"coordinates":{"latitude":35.24632,"longitude":-120.67236},"transactions":[],"price":"$$","location":{"address1":"102 Cross St","address2":"Ste 120","address3":null,"city":"Sn Luis Obisp","zip_code":"93401","country":"US","state":"CA","display_address":["102 Cross St","Ste 120","Sn Luis Obisp, CA 93401"]},"phone":"+18055447676","display_phone":"(805) 544-7676","distance":3269.3463944893083},{"id":"san-luis-obispo-lighthouse-san-luis-obispo","name":"San Luis Obispo Lighthouse","image_url":"https://s3-media3.fl.yelpcdn.com/bphoto/GNeON2eegSZpvGIg1oHkKA/o.jpg","is_closed":false,"url":"https://www.yelp.com/biz/san-luis-obispo-lighthouse-san-luis-obispo?adjust_creative=W0FHo_DCPg17nE7p3sBQcg&utm_campaign=yelp_api_v3&utm_medium=api_v3_business_search&utm_source=W0FHo_DCPg17nE7p3sBQcg","review_count":2,"categories":[{"alias":"landmarks","title":"Landmarks & Historical Buildings"}],"rating":3.0,"coordinates":{"latitude":35.2621116638184,"longitude":-120.678215026855},"transactions":[],"location":{"address1":"","address2":"","address3":"","city":"San Luis Obispo","zip_code":"93403","country":"US","state":"CA","display_address":["San Luis Obispo, CA 93403"]},"phone":"","display_phone":"","distance":1927.8551926154457},{"id":"metro-station-19-san-luis-obispo","name":"Metro Station 19","image_url":"https://s3-media2.fl.yelpcdn.com/bphoto/6qs1NBtx54XhbuUiUD3bpA/o.jpg","is_closed":false,"url":"https://www.yelp.com/biz/metro-station-19-san-luis-obispo?adjust_creative=W0FHo_DCPg17nE7p3sBQcg&utm_campaign=yelp_api_v3&utm_medium=api_v3_business_search&utm_source=W0FHo_DCPg17nE7p3sBQcg","review_count":7,"categories":[{"alias":"tradamerican","title":"American (Traditional)"}],"rating":2.5,"coordinates":{"latitude":35.3001950494743,"longitude":-120.658887914756},"transactions":[],"price":"$","location":{"address1":"Via Carta","address2":"","address3":"","city":"San Luis Obispo","zip_code":"93405","country":"US","state":"CA","display_address":["Via Carta","San Luis Obispo, CA 93405"]},"phone":"","display_phone":"","distance":3408.340375727778},{"id":"sues-sandos-san-luis-obispo","name":"Sue's Sandos","image_url":"","is_closed":false,"url":"https://www.yelp.com/biz/sues-sandos-san-luis-obispo?adjust_creative=W0FHo_DCPg17nE7p3sBQcg&utm_campaign=yelp_api_v3&utm_medium=api_v3_business_search&utm_source=W0FHo_DCPg17nE7p3sBQcg","review_count":3,"categories":[{"alias":"sandwiches","title":"Sandwiches"}],"rating":3.5,"coordinates":{"latitude":35.2593383789062,"longitude":-120.643920898438},"transactions":[],"price":"$","location":{"address1":"3440 Roberto Ct","address2":"Ste 4","address3":"","city":"San Luis Obispo","zip_code":"93401","country":"US","state":"CA","display_address":["3440 Roberto Ct","Ste 4","San Luis Obispo, CA 93401"]},"phone":"+18055438398","display_phone":"(805) 543-8398","distance":3739.8996253511},{"id":"laguna-hills-park-san-luis-obispo","name":"Laguna Hills Park","image_url":"https://s3-media4.fl.yelpcdn.com/bphoto/NqbhFOUCogwTRZtaWF2HVA/o.jpg","is_closed":false,"url":"https://www.yelp.com/biz/laguna-hills-park-san-luis-obispo?adjust_creative=W0FHo_DCPg17nE7p3sBQcg&utm_campaign=yelp_api_v3&utm_medium=api_v3_business_search&utm_source=W0FHo_DCPg17nE7p3sBQcg","review_count":1,"categories":[{"alias":"parks","title":"Parks"}],"rating":4.0,"coordinates":{"latitude":35.26481,"longitude":-120.70233},"transactions":[],"location":{"address1":"890 Mirada Dr","address2":"","address3":"","city":"San Luis Obispo","zip_code":"93405","country":"US","state":"CA","display_address":["890 Mirada Dr","San Luis Obispo, CA 93405"]},"phone":"","display_phone":"","distance":2296.878656915312}],"total":300,"region":{"center":{"longitude":-120.6803512573,"latitude":35.2750434489}}}
