
{"businesses":[{"id":"gdi-geoffs-frat-snacks-san-luis-obispo-2","name":"GDI Geoff's Frat Snacks","image_url":"https://s3-media4.fl.yelpcdn.com/bphoto/pefu-dzZ3jsX4JAzIkV34w/o.jpg","is_closed":false,"url":"https://www.yelp.com/biz/gdi-geoffs-frat-snacks-san-luis-obispo-2?adjust_creative=W0FHo_DCPg17nE7p3sBQcg&utm_campaign=yelp_api_v3&utm_medium=api_v3_business_search&utm_source=W0FHo_DCPg17nE7p3sBQcg","review_count":5,"categories":[{"alias":"hotdogs","title":"Fast Food"}],"rating":4.0,"coordinates":{"latitude":35.2964134,"longitude":-120.6610947},"transactions":[],"price":"$","location":{"address1":"1339 E Foothill","address2":"","address3":"","city":"San Luis Obispo","zip_code":"93405","country":"US","state":"CA","display_address":["1339 E Foothill","San Luis Obispo, CA 93405"]},"phone":"+19097324985","display_phone":"(909) 732-4985","distance":3029.35139647245},{"id":"einstein-bros-bagels-san-luis-obispo","name":"Einstein Bros Bagels","image_url":"https://s3-media3.fl.yelpcdn.com/bphoto/catt53bblwr3Bw_qgpB9Gg/o.jpg","is_closed":false,"url":"https://www.yelp.com/biz/einstein-bros-bagels-san-luis-obispo?adjust_creative=W0FHo_DCPg17nE7p3sBQcg&utm_campaign=yelp_api_v3&utm_medium=api_v3_business_search&utm_source=W0FHo_DCPg17nE7p3sBQcg","review_count":7,"categories":[{"alias":"bagels","title":"Bagels"},{"alias":"coffee","title":"Coffee & Tea"}],"rating":2.5,"coordinates":{"latitude":35.307395,"longitude":-120.659288},"transactions":[],"price":"$$","location":{"address1":"1 Grand Ave","address2":"","address3":"","city":"San Luis Obispo","zip_code":"93405","country":"US","state":"CA","display_address":["1 Grand Ave","San Luis Obispo, CA 93405"]},"phone":"+18057561953","display_phone":"(805) 756-1953","distance":4073.7393557815462},{"id":"terrace-hill-san-luis-obispo","name":"Terrace Hill","image_url":"https://s3-media1.fl.yelpcdn.com/bphoto/wpA2WDoeGW3SBRvuWw_LPg/o.jpg","is_closed":false,"url":"https://www.yelp.com/biz/terrace-hill-san-luis-obispo?adjust_creative=W0FHo_DCPg17nE7p3sBQcg&utm_campaign=yelp_api_v3&utm_medium=api_v3_business_search&utm_source=W0FHo_DCPg17nE7p3sBQcg","review_count":1,"categories":[{"alias":"hiking","title":"Hiking"},{"alias":"parks","title":"Parks"}],"rating":4.0,"coordinates":{"latitude":35.2735612590668,"longitude":-120.651809942328},"transactions":[],"location":{"address1":"Terrace Hill Lp","address2":"","address3":"","city":"San Luis Obispo","zip_code":"93401","country":"US","state":"CA","display_address":["Terrace Hill Lp","San Luis Obispo, CA 93401"]},"phone":"","display_phone":"","distance":2596.190566708382},{"id":"chinatown-san-luis-obispo-ah-louis-national-landmark-san-luis-obispo","name":"Chinatown San Luis Obispo - Ah Louis - National Landmark","image_url":"https://s3-media4.fl.yelpcdn.com/bphoto/FykdRgPDUVeL8iCqJBsvWw/o.jpg","is_closed":false,"url":"https://www.yelp.com/biz/chinatown-san-luis-obispo-ah-louis-national-landmark-san-luis-obispo?adjust_creative=W0FHo_DCPg17nE7p3sBQcg&utm_campaign=yelp_api_v3&utm_medium=api_v3_business_search&utm_source=W0FHo_DCPg17nE7p3sBQcg","review_count":1,"categories":[{"alias":"landmarks","title":"Landmarks & Historical Buildings"}],"rating":3.0,"coordinates":{"latitude":35.28173,"longitude":-120.66418},"transactions":[],"location":{"address1":"800 Palm St","address2":"","address3":null,"city":"San Luis Obispo","zip_code":"93401","country":"US","state":"CA","display_address":["800 Palm St","San Luis Obispo, CA 93401"]},"phone":"+14156232100","display_phone":"(415) 623-2100","distance":1634.725834410836},{"id":"starbucks-san-luis-obispo-2","name":"Starbucks","image_url":"https://s3-media3.fl.yelpcdn.com/bphoto/JIXWCER5s-usXXL1eyJ8xw/o.jpg","is_closed":false,"url":"https://www.yelp.com/biz/starbucks-san-luis-obispo-2?adjust_creative=W0FHo_DCPg17nE7p3sBQcg&utm_campaign=yelp_api_v3&utm_medium=api_v3_business_search&utm_source=W0FHo_DCPg17nE7p3sBQcg","review_count":7,"categories":[{"alias":"coffee","title":"Coffee & Tea"}],"rating":2.5,"coordinates":{"latitude":35.25020269305,"longitude":-120.642020450896},"transactions":[],"price":"$$","location":{"address1":"3900 Broad St","address2":"","address3":"","city":"San Luis Obispo","zip_code":"93401","country":"US","state":"CA","display_address":["3900 Broad St","San Luis Obispo, CA 93401"]},"phone":"+18055411055","display_phone":"(805) 541-1055","distance":4443.072598075596},{"id":"priolo-martin-park-san-luis-obispo","name":"Priolo-Martin Park","image_url":"https://s3-media1.fl.yelpcdn.com/bphoto/oAk2t7-oTu3yynbHSZSOcg/o.jpg","is_closed":false,"url":"https://www.yelp.com/biz/priolo-martin-park-san-luis-obispo?adjust_creative=W0FHo_DCPg17nE7p3sBQcg&utm_campaign=yelp_api_v3&utm_medium=api_v3_business_search&utm_source=W0FHo_DCPg17nE7p3sBQcg","review_count":1,"categories":[{"alias":"parks","title":"Parks"}],"rating":3.0,"coordinates":{"latitude":35.2675285339355,"longitude":-120.699829101562},"transactions":[],"location":{"address1":"860 Vista Del Collados","address2":"","address3":"","city":"San Luis Obispo","zip_code":"93405","country":"US","state":"CA","display_address":["860 Vista Del Collados","San Luis Obispo, CA 93405"]},"phone":"","display_phone":"","distance":1955.68424123646},{"id":"sands-liquor-deli-san-luis-obispo","name":"Sands Liquor Deli","image_url":"","is_closed":false,"url":"https://www.yelp.com/biz/sands-liquor-deli-san-luis-obispo?adjust_creative=W0FHo_DCPg17nE7p3sBQcg&utm_campaign=yelp_api_v3&utm_medium=api_v3_business_search&utm_source=W0FHo_DCPg17nE7p3sBQcg","review_count":1,"categories":[{"alias":"beer_and_wine","title":"Beer, Wine & Spirits"},{"alias":"delis","title":"Delis"}],"rating":4.0,"coordinates":{"latitude":35.2896308898926,"longitude":-120.650733947754},"transactions":[],"price":"$","location":{"address1":"1930 Monterey St","address2":"# A","address3":"","city":"San Luis Obispo","zip_code":"93401","country":"US","state":"CA","display_address":["1930 Monterey St","# A","San Luis Obispo, CA 93401"]},"phone":"+18055498101","display_phone":"(805) 549-8101","distance":3148.3446319958657},{"id":"tacos-to-go-san-luis-obispo","name":"Tacos To Go","image_url":"https://s3-media3.fl.yelpcdn.com/bphoto/NCFQHh0prOljuSVXaw0ZZw/o.jpg","is_closed":false,"url":"https://www.yelp.com/biz/tacos-to-go-san-luis-obispo?adjust_creative=W0FHo_DCPg17nE7p3sBQcg&utm_campaign=yelp_api_v3&utm_medium=api_v3_business_search&utm_source=W0FHo_DCPg17nE7p3sBQcg","review_count":3,"categories":[{"alias":"mexican","title":"Mexican"}],"rating":2.5,"coordinates":{"latitude":35.2961502,"longitude":-120.652916},"transactions":[],"price":"$","location":{"address1":"1 Grand","address2":"","address3":"","city":"San Luis Obispo","zip_code":"93405","country":"US","state":"CA","display_address":["1 Grand","San Luis Obispo, CA 93405"]},"phone":"+18057565135","display_phone":"(805) 756-5135","distance":3654.7356460215337},{"id":"french-park-san-luis-obispo","name":"French Park","image_url":"https://s3-media1.fl.yelpcdn.com/bphoto/4chql0VmGXTxphboHNYyKQ/o.jpg","is_closed":false,"url":"https://www.yelp.com/biz/french-park-san-luis-obispo?adjust_creative=W0FHo_DCPg17nE7p3sBQcg&utm_campaign=yelp_api_v3&utm_medium=api_v3_business_search&utm_source=W0FHo_DCPg17nE7p3sBQcg","review_count":1,"categories":[{"alias":"parks","title":"Parks"},{"alias":"playgrounds","title":"Playgrounds"}],"rating":5.0,"coordinates":{"latitude":35.2467013216672,"longitude":-120.636505656863},"transactions":[],"location":{"address1":"1040 Fuller Rd","address2":"","address3":null,"city":"San Luis Obispo","zip_code":"93401","country":"US","state":"CA","display_address":["1040 Fuller Rd","San Luis Obispo, CA 93401"]},"phone":"","display_phone":"","distance":5077.369274053071},{"id":"backstage-pizza-san-luis-obispo","name":"Backstage Pizza","image_url":"","is_closed":false,"url":"https://www.yelp.com/biz/backstage-pizza-san-luis-obispo?adjust_creative=W0FHo_DCPg17nE7p3sBQcg&utm_campaign=yelp_api_v3&utm_medium=api_v3_business_search&utm_source=W0FHo_DCPg17nE7p3sBQcg","review_count":2,"categories":[{"alias":"pizza","title":"Pizza"}],"rating":2.5,"coordinates":{"latitude":35.29933,"longitude":-120.65653},"transactions":[],"location":{"address1":"1 Grand Ave","address2":"","address3":"Bldg 65 - University Union","city":"San Luis Obispo","zip_code":"93401","country":"US","state":"CA","display_address":["1 Grand Ave","Bldg 65 - University Union","San Luis Obispo, CA 93401"]},"phone":"+18057564089","display_phone":"(805) 756-4089","distance":3669.9356045052655},{"id":"wine-sneak-san-luis-obispo","name":"Wine Sneak","image_url":"","is_closed":false,"url":"https://www.yelp.com/biz/wine-sneak-san-luis-obispo?adjust_creative=W0FHo_DCPg17nE7p3sBQcg&utm_campaign=yelp_api_v3&utm_medium=api_v3_business_search&utm_source=W0FHo_DCPg17nE7p3sBQcg","review_count":1,"categories":[{"alias":"wine_bars","title":"Wine Bars"}],"rating":5.0,"coordinates":{"latitude":35.2422162289433,"longitude":-120.639018371725},"transactions":[],"location":{"address1":"4468 Broad St","address2":"suite 120","address3":null,"city":"San Luis Obispo","zip_code":"93401","country":"US","state":"CA","display_address":["4468 Broad St","suite 120","San Luis Obispo, CA 93401"]},"phone":"","display_phone":"","distance":5352.009215644485},{"id":"pasta-pronto-san-luis-obispo","name":"Pasta Pronto","image_url":"","is_closed":false,"url":"https://www.yelp.com/biz/pasta-pronto-san-luis-obispo?adjust_creative=W0FHo_DCPg17nE7p3sBQcg&utm_campaign=yelp_api_v3&utm_medium=api_v3_business_search&utm_source=W0FHo_DCPg17nE7p3sBQcg","review_count":1,"categories":[{"alias":"italian","title":"Italian"}],"rating":2.0,"coordinates":{"latitude":35.26065,"longitude":-120.64887},"transactions":[],"location":{"address1":"3212 Broad St","address2":"Ste140","address3":"","city":"San Luis Obispo","zip_code":"93401","country":"US","state":"CA","display_address":["3212 Broad St","Ste140","San Luis Obispo, CA 93401"]},"phone":"+18055414436","display_phone":"(805) 541-4436","distance":3270.8499771940096},{"id":"bacon-and-barrels-san-luis-obispo","name":"Bacon & Barrels","image_url":"","is_closed":false,"url":"https://www.yelp.com/biz/bacon-and-barrels-san-luis-obispo?adjust_creative=W0FHo_DCPg17nE7p3sBQcg&utm_campaign=yelp_api_v3&utm_medium=api_v3_business_search&utm_source=W0FHo_DCPg17nE7p3sBQcg","review_count":0,"categories":[{"alias":"festivals","title":"Festivals"},{"alias":"localflavor","title":"Local Flavor"}],"rating":0.0,"coordinates":{"latitude":35.26739,"longitude":-120.67171},"transactions":[],"location":{"address1":"Madonna Inn Bike Path","address2":"","address3":null,"city":"San Luis Obispo","zip_code":"93401","country":"US","state":"CA","display_address":["Madonna Inn Bike Path","San Luis Obispo, CA 93401"]},"phone":"+18059960652","display_phone":"(805) 996-0652","distance":891.8870948345659},{"id":"jumping-java-bean-san-luis-obispo","name":"Jumping Java Bean","image_url":"","is_closed":false,"url":"https://www.yelp.com/biz/jumping-java-bean-san-luis-obispo?adjust_creative=W0FHo_DCPg17nE7p3sBQcg&utm_campaign=yelp_api_v3&utm_medium=api_v3_business_search&utm_source=W0FHo_DCPg17nE7p3sBQcg","review_count":1,"categories":[{"alias":"coffee","title":"Coffee & Tea"}],"rating":1.0,"coordinates":{"latitude":35.26182,"longitude":-120.64848},"transactions":[],"location":{"address1":"3195 McMillan Ave","address2":"","address3":"","city":"San Luis Obispo","zip_code":"93401","country":"US","state":"CA","display_address":["3195 McMillan Ave","San Luis Obispo, CA 93401"]},"phone":"+18055940600","display_phone":"(805) 594-0600","distance":3252.552898597838},{"id":"emerson-park-san-luis-obispo","name":"Emerson Park","image_url":"https://s3-media2.fl.yelpcdn.com/bphoto/n0rvri4wSvkHgh7RRxK_BQ/o.jpg","is_closed":false,"url":"https://www.yelp.com/biz/emerson-park-san-luis-obispo?adjust_creative=W0FHo_DCPg17nE7p3sBQcg&utm_campaign=yelp_api_v3&utm_medium=api_v3_business_search&utm_source=W0FHo_DCPg17nE7p3sBQcg","review_count":0,"categories":[{"alias":"parks","title":"Parks"},{"alias":"playgrounds","title":"Playgrounds"},{"alias":"basketballcourts","title":"Basketball Courts"}],"rating":0.0,"coordinates":{"latitude":35.27578,"longitude":-120.66461},"transactions":[],"location":{"address1":"1341 Nipomo St","address2":"","address3":null,"city":"San Luis Obispo","zip_code":"93401","country":"US","state":"CA","display_address":["1341 Nipomo St","San Luis Obispo, CA 93401"]},"phone":"+18057817222","display_phone":"(805) 781-7222","distance":1438.921917335264},{"id":"ciopino-san-luis-obispo","name":"Ciopino","image_url":"","is_closed":false,"url":"https://www.yelp.com/biz/ciopino-san-luis-obispo?adjust_creative=W0FHo_DCPg17nE7p3sBQcg&utm_campaign=yelp_api_v3&utm_medium=api_v3_business_search&utm_source=W0FHo_DCPg17nE7p3sBQcg","review_count":0,"categories":[{"alias":"restaurants","title":"Restaurants"}],"rating":0.0,"coordinates":{"latitude":35.278130248189,"longitude":-120.665729865432},"transactions":[],"location":{"address1":"Nipoomo And Higuers","address2":"","address3":"","city":"San Luis Obispo","zip_code":"93401","country":"US","state":"CA","display_address":["Nipoomo And Higuers","San Luis Obispo, CA 93401"]},"phone":"","display_phone":"","distance":1374.204049736474},{"id":"restaurante-de-michelangelo-san-luis-obispo","name":"Restaurante de Michelangelo","image_url":"https://s3-media1.fl.yelpcdn.com/bphoto/iUs84_eVqM-Sa6rqczeFjQ/o.jpg","is_closed":false,"url":"https://www.yelp.com/biz/restaurante-de-michelangelo-san-luis-obispo?adjust_creative=W0FHo_DCPg17nE7p3sBQcg&utm_campaign=yelp_api_v3&utm_medium=api_v3_business_search&utm_source=W0FHo_DCPg17nE7p3sBQcg","review_count":0,"categories":[{"alias":"bars","title":"Bars"},{"alias":"italian","title":"Italian"}],"rating":0.0,"coordinates":{"latitude":35.2667579650879,"longitude":-120.663146972656},"transactions":[],"location":{"address1":"351 Carrida Dr","address2":"","address3":"","city":"San Luis Obispo","zip_code":"93401","country":"US","state":"CA","display_address":["351 Carrida Dr","San Luis Obispo, CA 93401"]},"phone":"","display_phone":"","distance":1813.3538155778858},{"id":"discovery-san-luis-obispo-san-luis-obispo","name":"Discovery San Luis Obispo","image_url":"","is_closed":false,"url":"https://www.yelp.com/biz/discovery-san-luis-obispo-san-luis-obispo?adjust_creative=W0FHo_DCPg17nE7p3sBQcg&utm_campaign=yelp_api_v3&utm_medium=api_v3_business_search&utm_source=W0FHo_DCPg17nE7p3sBQcg","review_count":0,"categories":[{"alias":"newamerican","title":"American (New)"},{"alias":"bowling","title":"Bowling"},{"alias":"bars","title":"Bars"}],"rating":0.0,"coordinates":{"latitude":35.2794532775879,"longitude":-120.662117004395},"transactions":[],"location":{"address1":"1144 Chorro St","address2":null,"address3":"","city":"San Luis Obispo","zip_code":"93401","country":"US","state":"CA","display_address":["1144 Chorro St","San Luis Obispo, CA 93401"]},"phone":"+18052521394","display_phone":"(805) 252-1394","distance":1722.3013141356057},{"id":"live-local-apparel-san-luis-obispo","name":"Live Local Apparel","image_url":"https://s3-media3.fl.yelpcdn.com/bphoto/XDpejcr7vEKbw2_5vmPNaQ/o.jpg","is_closed":false,"url":"https://www.yelp.com/biz/live-local-apparel-san-luis-obispo?adjust_creative=W0FHo_DCPg17nE7p3sBQcg&utm_campaign=yelp_api_v3&utm_medium=api_v3_business_search&utm_source=W0FHo_DCPg17nE7p3sBQcg","review_count":0,"categories":[{"alias":"bespoke","title":"Bespoke Clothing"},{"alias":"personal_shopping","title":"Personal Shopping"},{"alias":"localflavor","title":"Local Flavor"}],"rating":0.0,"coordinates":{"latitude":35.2818031,"longitude":-120.6616745},"transactions":[],"location":{"address1":"978 Monterey St","address2":null,"address3":"","city":"San Luis Obispo","zip_code":"93401","country":"US","state":"CA","display_address":["978 Monterey St","San Luis Obispo, CA 93401"]},"phone":"+18056028837","display_phone":"(805) 602-8837","distance":1828.2469765651138},{"id":"the-cellar-san-luis-obispo","name":"The Cellar","image_url":"https://s3-media1.fl.yelpcdn.com/bphoto/U9BvPtJTHt57r4jSa2aPLg/o.jpg","is_closed":false,"url":"https://www.yelp.com/biz/the-cellar-san-luis-obispo?adjust_creative=W0FHo_DCPg17nE7p3sBQcg&utm_campaign=yelp_api_v3&utm_medium=api_v3_business_search&utm_source=W0FHo_DCPg17nE7p3sBQcg","review_count":0,"categories":[{"alias":"wine_bars","title":"Wine Bars"}],"rating":0.0,"coordinates":{"latitude":35.281521,"longitude":-120.660828},"transactions":[],"location":{"address1":"1060 Osos St","address2":null,"address3":"","city":"San Luis Obispo","zip_code":"93401","country":"US","state":"CA","display_address":["1060 Osos St","San Luis Obispo, CA 93401"]},"phone":"+18057829110","display_phone":"(805) 782-9110","distance":1909.87881589151},{"id":"mos-smokehouse-bbq-san-luis-obispo-6","name":"Mo's Smokehouse Bbq","image_url":"","is_closed":false,"url":"https://www.yelp.com/biz/mos-smokehouse-bbq-san-luis-obispo-6?adjust_creative=W0FHo_DCPg17nE7p3sBQcg&utm_campaign=yelp_api_v3&utm_medium=api_v3_business_search&utm_source=W0FHo_DCPg17nE7p3sBQcg","review_count":0,"categories":[{"alias":"catering","title":"Caterers"},{"alias":"bbq","title":"Barbeque"}],"rating":0.0,"coordinates":{"latitude":35.2809715852743,"longitude":-120.661212025226},"transactions":[],"location":{"address1":"970 Higuera St","address2":null,"address3":null,"city":"San Luis Obispo","zip_code":"93401","country":"US","state":"CA","display_address":["970 Higuera St","San Luis Obispo, CA 93401"]},"phone":"+18055508071","display_phone":"(805) 550-8071","distance":1852.217979187964},{"id":"mos-smokehouse-bbq-san-luis-obispo-7","name":"MO'S SMOKEHOUSE BBQ","image_url":"","is_closed":false,"url":"https://www.yelp.com/biz/mos-smokehouse-bbq-san-luis-obispo-7?adjust_creative=W0FHo_DCPg17nE7p3sBQcg&utm_campaign=yelp_api_v3&utm_medium=api_v3_business_search&utm_source=W0FHo_DCPg17nE7p3sBQcg","review_count":0,"categories":[{"alias":"catering","title":"Caterers"},{"alias":"bbq","title":"Barbeque"}],"rating":0.0,"coordinates":{"latitude":35.2809715852743,"longitude":-120.661212025226},"transactions":[],"location":{"address1":"970 Higuera St","address2":null,"address3":null,"city":"San Luis Obispo","zip_code":"93401","country":"US","state":"CA","display_address":["970 Higuera St","San Luis Obispo, CA 93401"]},"phone":"+18055508071","display_phone":"(805) 550-8071","distance":1852.217979187964},{"id":"main-st-grill-san-luis-obispo","name":"Main St Grill","image_url":"","is_closed":false,"url":"https://www.yelp.com/biz/main-st-grill-san-luis-obispo?adjust_creative=W0FHo_DCPg17nE7p3sBQcg&utm_campaign=yelp_api_v3&utm_medium=api_v3_business_search&utm_source=W0FHo_DCPg17nE7p3sBQcg","review_count":0,"categories":[{"alias":"tradamerican","title":"American (Traditional)"}],"rating":0.0,"coordinates":{"latitude":35.2811127,"longitude":-120.660553},"transactions":[],"location":{"address1":"1001 Higuera St","address2":"","address3":"","city":"San Luis Obispo","zip_code":"93401","country":"US","state":"CA","display_address":["1001 Higuera St","San Luis Obispo, CA 93401"]},"phone":"","display_phone":"","distance":1947.237424872584},{"id":"slo-coast-cocktails-san-luis-obispo","name":"Slo Coast Cocktails","image_url":"https://s3-media2.fl.yelpcdn.com/bphoto/SKiotVanecBhgq5-SkDBcQ/o.jpg","is_closed":false,"url":"https://www.yelp.com/biz/slo-coast-cocktails-san-luis-obispo?adjust_creative=W0FHo_DCPg17nE7p3sBQcg&utm_campaign=yelp_api_v3&utm_medium=api_v3_business_search&utm_source=W0FHo_DCPg17nE7p3sBQcg","review_count":0,"categories":[{"alias":"cocktailbars","title":"Cocktail Bars"}],"rating":0.0,"coordinates":{"latitude":35.2855186462402,"longitude":-120.662521362305},"transactions":[],"location":{"address1":"","address2":null,"address3":"","city":"San Luis Obispo","zip_code":"","country":"US","state":"CA","display_address":["San Luis Obispo, CA"]},"phone":"+18057480833","display_phone":"(805) 748-0833","distance":2068.253999731386},{"id":"eto-park-san-luis-obispo","name":"Eto Park","image_url":"","is_closed":false,"url":"https://www.yelp.com/biz/eto-park-san-luis-obispo?adjust_creative=W0FHo_DCPg17nE7p3sBQcg&utm_campaign=yelp_api_v3&utm_medium=api_v3_business_search&utm_source=W0FHo_DCPg17nE7p3sBQcg","review_count":0,"categories":[{"alias":"parks","title":"Parks"}],"rating":0.0,"coordinates":{"latitude":35.26894,"longitude":-120.67158},"transactions":[],"location":{"address1":"170 Brook St","address2":"","address3":null,"city":"San Luis Obispo","zip_code":"93401","country":"US","state":"CA","display_address":["170 Brook St","San Luis Obispo, CA 93401"]},"phone":"","display_phone":"","distance":1047.2579574516199},{"id":"slo-skate-park-san-luis-obispo","name":"SLO Skate Park","image_url":"https://s3-media4.fl.yelpcdn.com/bphoto/LvMYm1eS7VfA03ZG8s6E-A/o.jpg","is_closed":false,"url":"https://www.yelp.com/biz/slo-skate-park-san-luis-obispo?adjust_creative=W0FHo_DCPg17nE7p3sBQcg&utm_campaign=yelp_api_v3&utm_medium=api_v3_business_search&utm_source=W0FHo_DCPg17nE7p3sBQcg","review_count":1,"categories":[{"alias":"parks","title":"Parks"}],"rating":5.0,"coordinates":{"latitude":35.290199801826,"longitude":-120.664268329209},"transactions":[],"location":{"address1":"Santa Rosa & Oak St","address2":"","address3":"","city":"San Luis Obispo","zip_code":"93405","country":"US","state":"CA","display_address":["Santa Rosa & Oak St","San Luis Obispo, CA 93405"]},"phone":"","display_phone":"","distance":2229.6646131753496},{"id":"ace-express-fresh-sushi-san-luis-obispo","name":"Ace Express Fresh Sushi","image_url":"","is_closed":false,"url":"https://www.yelp.com/biz/ace-express-fresh-sushi-san-luis-obispo?adjust_creative=W0FHo_DCPg17nE7p3sBQcg&utm_campaign=yelp_api_v3&utm_medium=api_v3_business_search&utm_source=W0FHo_DCPg17nE7p3sBQcg","review_count":0,"categories":[{"alias":"sushi","title":"Sushi Bars"}],"rating":0.0,"coordinates":{"latitude":35.2818345,"longitude":-120.6553364},"transactions":[],"location":{"address1":"1321 Johnson Ave","address2":"","address3":"","city":"San Luis Obispo","zip_code":"93401","country":"US","state":"CA","display_address":["1321 Johnson Ave","San Luis Obispo, CA 93401"]},"phone":"","display_phone":"","distance":2392.9776728167017},{"id":"scolaris-food-company-service-deli-san-luis-obispo","name":"Scolaris Food Company Service Deli","image_url":"","is_closed":false,"url":"https://www.yelp.com/biz/scolaris-food-company-service-deli-san-luis-obispo?adjust_creative=W0FHo_DCPg17nE7p3sBQcg&utm_campaign=yelp_api_v3&utm_medium=api_v3_business_search&utm_source=W0FHo_DCPg17nE7p3sBQcg","review_count":0,"categories":[{"alias":"delis","title":"Delis"}],"rating":0.0,"coordinates":{"latitude":35.2816314697266,"longitude":-120.655517578125},"transactions":[],"location":{"address1":"1321 Johnson Ave","address2":"","address3":"","city":"San Luis Obispo","zip_code":"93401","country":"US","state":"CA","display_address":["1321 Johnson Ave","San Luis Obispo, CA 93401"]},"phone":"+18055458851","display_phone":"(805) 545-8851","distance":2392.9776728167017},{"id":"milagros-mexican-restaurant-san-luis-obispo","name":"Milagros Mexican Restaurant","image_url":"","is_closed":false,"url":"https://www.yelp.com/biz/milagros-mexican-restaurant-san-luis-obispo?adjust_creative=W0FHo_DCPg17nE7p3sBQcg&utm_campaign=yelp_api_v3&utm_medium=api_v3_business_search&utm_source=W0FHo_DCPg17nE7p3sBQcg","review_count":0,"categories":[{"alias":"mexican","title":"Mexican"}],"rating":0.0,"coordinates":{"latitude":35.279014,"longitude":-120.664749},"transactions":[],"location":{"address1":"698 Higuera St","address2":"","address3":"","city":"San Luis Obispo","zip_code":"93401","country":"US","state":"CA","display_address":["698 Higuera St","San Luis Obispo, CA 93401"]},"phone":"+18055960307","display_phone":"(805) 596-0307","distance":1482.1086022623879},{"id":"taqueria-san-luis-obispo","name":"Taqueria","image_url":"https://s3-media3.fl.yelpcdn.com/bphoto/K75juj_SfUqg1FpkA4B0EQ/o.jpg","is_closed":false,"url":"https://www.yelp.com/biz/taqueria-san-luis-obispo?adjust_creative=W0FHo_DCPg17nE7p3sBQcg&utm_campaign=yelp_api_v3&utm_medium=api_v3_business_search&utm_source=W0FHo_DCPg17nE7p3sBQcg","review_count":0,"categories":[{"alias":"mexican","title":"Mexican"}],"rating":0.0,"coordinates":{"latitude":35.2517772,"longitude":-120.6886814},"transactions":[],"location":{"address1":"1531 Froom Ranch Way","address2":null,"address3":null,"city":"San Luis Obispo","zip_code":"93405","country":"US","state":"CA","display_address":["1531 Froom Ranch Way","San Luis Obispo, CA 93405"]},"phone":"+18057850194","display_phone":"(805) 785-0194","distance":2685.3156076597857},{"id":"mullarkeys-food-and-spirits-san-luis-obispo","name":"Mullarkey's Food & Spirits","image_url":"","is_closed":false,"url":"https://www.yelp.com/biz/mullarkeys-food-and-spirits-san-luis-obispo?adjust_creative=W0FHo_DCPg17nE7p3sBQcg&utm_campaign=yelp_api_v3&utm_medium=api_v3_business_search&utm_source=W0FHo_DCPg17nE7p3sBQcg","review_count":0,"categories":[{"alias":"tradamerican","title":"American (Traditional)"}],"rating":0.0,"coordinates":{"latitude":35.2600784301758,"longitude":-120.675971984863},"transactions":[],"location":{"address1":"333 Madonna Rd","address2":"","address3":"","city":"San Luis Obispo","zip_code":"93405","country":"US","state":"CA","display_address":["333 Madonna Rd","San Luis Obispo, CA 93405"]},"phone":"+18055439521","display_phone":"(805) 543-9521","distance":1833.660039935314},{"id":"vista-lago-park-san-luis-obispo","name":"Vista Lago Park","image_url":"","is_closed":false,"url":"https://www.yelp.com/biz/vista-lago-park-san-luis-obispo?adjust_creative=W0FHo_DCPg17nE7p3sBQcg&utm_campaign=yelp_api_v3&utm_medium=api_v3_business_search&utm_source=W0FHo_DCPg17nE7p3sBQcg","review_count":0,"categories":[{"alias":"parks","title":"Parks"}],"rating":0.0,"coordinates":{"latitude":35.2618,"longitude":-120.69403},"transactions":[],"location":{"address1":"1269 Vista Del Lago","address2":"","address3":null,"city":"San Luis Obispo","zip_code":"93405","country":"US","state":"CA","display_address":["1269 Vista Del Lago","San Luis Obispo, CA 93405"]},"phone":"","display_phone":"","distance":1926.127532812108},{"id":"goat-hill-san-luis-obispo","name":"Goat Hill","image_url":"","is_closed":false,"url":"https://www.yelp.com/biz/goat-hill-san-luis-obispo?adjust_creative=W0FHo_DCPg17nE7p3sBQcg&utm_campaign=yelp_api_v3&utm_medium=api_v3_business_search&utm_source=W0FHo_DCPg17nE7p3sBQcg","review_count":0,"categories":[{"alias":"pizza","title":"Pizza"}],"rating":0.0,"coordinates":{"latitude":35.2705383300781,"longitude":-120.656677246094},"transactions":[],"location":{"address1":"2138 Broad St","address2":"","address3":"","city":"San Luis Obispo","zip_code":"93403","country":"US","state":"CA","display_address":["2138 Broad St","San Luis Obispo, CA 93403"]},"phone":"","display_phone":"","distance":1927.8551926154457},{"id":"ellsford-park-san-luis-obispo","name":"Ellsford Park","image_url":"","is_closed":false,"url":"https://www.yelp.com/biz/ellsford-park-san-luis-obispo?adjust_creative=W0FHo_DCPg17nE7p3sBQcg&utm_campaign=yelp_api_v3&utm_medium=api_v3_business_search&utm_source=W0FHo_DCPg17nE7p3sBQcg","review_count":0,"categories":[{"alias":"parks","title":"Parks"}],"rating":0.0,"coordinates":{"latitude":35.2876,"longitude":-120.64976},"transactions":[],"location":{"address1":"San Luis Dr","address2":"","address3":null,"city":"San Luis Obispo","zip_code":"93401","country":"US","state":"CA","display_address":["San Luis Dr","San Luis Obispo, CA 93401"]},"phone":"","display_phone":"","distance":3110.791860328076},{"id":"stanton-mike-and-ellen-san-luis-obispo","name":"Stanton Mike & Ellen","image_url":"","is_closed":false,"url":"https://www.yelp.com/biz/stanton-mike-and-ellen-san-luis-obispo?adjust_creative=W0FHo_DCPg17nE7p3sBQcg&utm_campaign=yelp_api_v3&utm_medium=api_v3_business_search&utm_source=W0FHo_DCPg17nE7p3sBQcg","review_count":0,"categories":[{"alias":"restaurants","title":"Restaurants"}],"rating":0.0,"coordinates":{"latitude":35.2766959107446,"longitude":-120.656739983388},"transactions":[],"location":{"address1":"1634 Osos St","address2":null,"address3":null,"city":"San Luis Obispo","zip_code":"93401","country":"US","state":"CA","display_address":["1634 Osos St","San Luis Obispo, CA 93401"]},"phone":"+18055438063","display_phone":"(805) 543-8063","distance":2143.820223883996},{"id":"tacos-to-go-mexican-grill-san-luis-obispo","name":"Tacos To-Go Mexican Grill","image_url":"","is_closed":false,"url":"https://www.yelp.com/biz/tacos-to-go-mexican-grill-san-luis-obispo?adjust_creative=W0FHo_DCPg17nE7p3sBQcg&utm_campaign=yelp_api_v3&utm_medium=api_v3_business_search&utm_source=W0FHo_DCPg17nE7p3sBQcg","review_count":0,"categories":[{"alias":"mexican","title":"Mexican"}],"rating":0.0,"coordinates":{"latitude":35.2961486577988,"longitude":-120.653032287955},"transactions":[],"location":{"address1":"1 Grand Ave","address2":"","address3":"Poly Canyon Village","city":"San Luis Obispo","zip_code":"93446","country":"US","state":"CA","display_address":["1 Grand Ave","Poly Canyon Village","San Luis Obispo, CA 93446"]},"phone":"","display_phone":"","distance":3308.73292668889},{"id":"dream-dinners-san-luis-obispo","name":"Dream Dinners","image_url":"","is_closed":false,"url":"https://www.yelp.com/biz/dream-dinners-san-luis-obispo?adjust_creative=W0FHo_DCPg17nE7p3sBQcg&utm_campaign=yelp_api_v3&utm_medium=api_v3_business_search&utm_source=W0FHo_DCPg17nE7p3sBQcg","review_count":0,"categories":[{"alias":"diners","title":"Diners"}],"rating":0.0,"coordinates":{"latitude":35.2939491,"longitude":-120.6713257},"transactions":[],"location":{"address1":"795 E Foothill Blvd","address2":"","address3":"","city":"San Luis Obispo","zip_code":"93405","country":"US","state":"CA","display_address":["795 E Foothill Blvd","San Luis Obispo, CA 93405"]},"phone":"+18057864852","display_phone":"(805) 786-4852","distance":2226.631644252122},{"id":"curbside-grill-san-luis-obispo","name":"Curbside Grill","image_url":"https://s3-media2.fl.yelpcdn.com/bphoto/zIsk0Pz9aC9jod2SzP2Zeg/o.jpg","is_closed":false,"url":"https://www.yelp.com/biz/curbside-grill-san-luis-obispo?adjust_creative=W0FHo_DCPg17nE7p3sBQcg&utm_campaign=yelp_api_v3&utm_medium=api_v3_business_search&utm_source=W0FHo_DCPg17nE7p3sBQcg","review_count":0,"categories":[{"alias":"burgers","title":"Burgers"}],"rating":0.0,"coordinates":{"latitude":35.301765,"longitude":-120.662802},"transactions":[],"location":{"address1":"University Dr","address2":"","address3":"","city":"San Luis Obispo","zip_code":"93405","country":"US","state":"CA","display_address":["University Dr","San Luis Obispo, CA 93405"]},"phone":"","display_phone":"","distance":3371.306849081486},{"id":"end-of-the-line-cafe-san-luis-obispo","name":"End Of The Line Cafe","image_url":"","is_closed":false,"url":"https://www.yelp.com/biz/end-of-the-line-cafe-san-luis-obispo?adjust_creative=W0FHo_DCPg17nE7p3sBQcg&utm_campaign=yelp_api_v3&utm_medium=api_v3_business_search&utm_source=W0FHo_DCPg17nE7p3sBQcg","review_count":0,"categories":[{"alias":"cafes","title":"Cafes"}],"rating":0.0,"coordinates":{"latitude":35.26356,"longitude":-120.64392},"transactions":[],"location":{"address1":"1150 Laurel Ln","address2":"Ste 130","address3":"","city":"San Luis Obispo","zip_code":"93401","country":"US","state":"CA","display_address":["1150 Laurel Ln","Ste 130","San Luis Obispo, CA 93401"]},"phone":"+18055433685","display_phone":"(805) 543-3685","distance":3423.1270336515518},{"id":"new-york-style-giant-pizza-san-luis-obispo","name":"New York Style Giant Pizza","image_url":"","is_closed":false,"url":"https://www.yelp.com/biz/new-york-style-giant-pizza-san-luis-obispo?adjust_creative=W0FHo_DCPg17nE7p3sBQcg&utm_campaign=yelp_api_v3&utm_medium=api_v3_business_search&utm_source=W0FHo_DCPg17nE7p3sBQcg","review_count":0,"categories":[{"alias":"pizza","title":"Pizza"},{"alias":"donuts","title":"Donuts"}],"rating":0.0,"coordinates":{"latitude":35.2935244,"longitude":-120.6679946},"transactions":[],"location":{"address1":"13 Santa Rosa St","address2":"","address3":"","city":"San Luis Obispo","zip_code":"93405","country":"US","state":"CA","display_address":["13 Santa Rosa St","San Luis Obispo, CA 93405"]},"phone":"+18055431736","display_phone":"(805) 543-1736","distance":2341.93275576577},{"id":"johnson-park-san-luis-obispo","name":"Johnson Park","image_url":"","is_closed":false,"url":"https://www.yelp.com/biz/johnson-park-san-luis-obispo?adjust_creative=W0FHo_DCPg17nE7p3sBQcg&utm_campaign=yelp_api_v3&utm_medium=api_v3_business_search&utm_source=W0FHo_DCPg17nE7p3sBQcg","review_count":0,"categories":[{"alias":"parks","title":"Parks"}],"rating":0.0,"coordinates":{"latitude":35.2662163,"longitude":-120.643486},"transactions":[],"location":{"address1":"1020 Southwood Dr","address2":"","address3":"","city":"San Luis Obispo","zip_code":"93401","country":"US","state":"CA","display_address":["1020 Southwood Dr","San Luis Obispo, CA 93401"]},"phone":"","display_phone":"","distance":3503.174567227252},{"id":"mustang-station-san-luis-obispo","name":"Mustang Station","image_url":"https://s3-media2.fl.yelpcdn.com/bphoto/pqU3MyYKc6JIzYpTnYFCmQ/o.jpg","is_closed":false,"url":"https://www.yelp.com/biz/mustang-station-san-luis-obispo?adjust_creative=W0FHo_DCPg17nE7p3sBQcg&utm_campaign=yelp_api_v3&utm_medium=api_v3_business_search&utm_source=W0FHo_DCPg17nE7p3sBQcg","review_count":0,"categories":[{"alias":"pizza","title":"Pizza"},{"alias":"pubs","title":"Pubs"}],"rating":0.0,"coordinates":{"latitude":35.2961517,"longitude":-120.6529153},"transactions":[],"location":{"address1":"1 Grand Ave","address2":"","address3":"Cal Poly","city":"San Luis Obispo","zip_code":"93405","country":"US","state":"CA","display_address":["1 Grand Ave","Cal Poly","San Luis Obispo, CA 93405"]},"phone":"+18057564089","display_phone":"(805) 756-4089","distance":3669.9356045052655},{"id":"coffee-diva-san-luis-obispo","name":"Coffee Diva","image_url":"","is_closed":false,"url":"https://www.yelp.com/biz/coffee-diva-san-luis-obispo?adjust_creative=W0FHo_DCPg17nE7p3sBQcg&utm_campaign=yelp_api_v3&utm_medium=api_v3_business_search&utm_source=W0FHo_DCPg17nE7p3sBQcg","review_count":0,"categories":[{"alias":"coffee","title":"Coffee & Tea"}],"rating":0.0,"coordinates":{"latitude":35.285961151123,"longitude":-120.655479431152},"transactions":[],"location":{"address1":"1422 Monterey St","address2":"","address3":"","city":"San Luis Obispo","zip_code":"93401","country":"US","state":"CA","display_address":["1422 Monterey St","San Luis Obispo, CA 93401"]},"phone":"+18055457664","display_phone":"(805) 545-7664","distance":2559.399814472846},{"id":"village-market-san-luis-obispo","name":"Village Market","image_url":"","is_closed":false,"url":"https://www.yelp.com/biz/village-market-san-luis-obispo?adjust_creative=W0FHo_DCPg17nE7p3sBQcg&utm_campaign=yelp_api_v3&utm_medium=api_v3_business_search&utm_source=W0FHo_DCPg17nE7p3sBQcg","review_count":0,"categories":[{"alias":"grocery","title":"Grocery"},{"alias":"sandwiches","title":"Sandwiches"}],"rating":0.0,"coordinates":{"latitude":35.3074132297747,"longitude":-120.659548669864},"transactions":[],"location":{"address1":"Canyon Cir","address2":"","address3":"","city":"San Luis Obispo","zip_code":"93410","country":"US","state":"CA","display_address":["Canyon Cir","San Luis Obispo, CA 93410"]},"phone":"+18057561959","display_phone":"(805) 756-1959","distance":4064.4856437004496},{"id":"monterey-street-cafe-san-luis-obispo","name":"Monterey Street Cafe","image_url":"","is_closed":false,"url":"https://www.yelp.com/biz/monterey-street-cafe-san-luis-obispo?adjust_creative=W0FHo_DCPg17nE7p3sBQcg&utm_campaign=yelp_api_v3&utm_medium=api_v3_business_search&utm_source=W0FHo_DCPg17nE7p3sBQcg","review_count":0,"categories":[{"alias":"tradamerican","title":"American (Traditional)"}],"rating":0.0,"coordinates":{"latitude":35.2891930192709,"longitude":-120.650968328118},"transactions":[],"location":{"address1":"1885 Monterey St","address2":"","address3":"","city":"San Luis Obispo","zip_code":"93401","country":"US","state":"CA","display_address":["1885 Monterey St","San Luis Obispo, CA 93401"]},"phone":"+18055442752","display_phone":"(805) 544-2752","distance":3075.3493799921357},{"id":"crossroads-sports-deli-and-pub-san-luis-obispo","name":"Crossroads Sports Deli & Pub","image_url":"","is_closed":false,"url":"https://www.yelp.com/biz/crossroads-sports-deli-and-pub-san-luis-obispo?adjust_creative=W0FHo_DCPg17nE7p3sBQcg&utm_campaign=yelp_api_v3&utm_medium=api_v3_business_search&utm_source=W0FHo_DCPg17nE7p3sBQcg","review_count":0,"categories":[{"alias":"sportsbars","title":"Sports Bars"},{"alias":"delis","title":"Delis"}],"rating":0.0,"coordinates":{"latitude":35.2608985900879,"longitude":-120.650451660156},"transactions":[],"location":{"address1":"3211 Broad St","address2":"","address3":"","city":"San Luis Obispo","zip_code":"93401","country":"US","state":"CA","display_address":["3211 Broad St","San Luis Obispo, CA 93401"]},"phone":"+18055440421","display_phone":"(805) 544-0421","distance":3144.350254943886},{"id":"julians-san-luis-obispo","name":"Julians","image_url":"","is_closed":false,"url":"https://www.yelp.com/biz/julians-san-luis-obispo?adjust_creative=W0FHo_DCPg17nE7p3sBQcg&utm_campaign=yelp_api_v3&utm_medium=api_v3_business_search&utm_source=W0FHo_DCPg17nE7p3sBQcg","review_count":0,"categories":[{"alias":"coffee","title":"Coffee & Tea"}],"rating":0.0,"coordinates":{"latitude":35.3018638444922,"longitude":-120.663487589684},"transactions":[],"location":{"address1":"Cal Poly","address2":"","address3":"","city":"San Luis Obispo","zip_code":"93405","country":"US","state":"CA","display_address":["Cal Poly","San Luis Obispo, CA 93405"]},"phone":"","display_phone":"","distance":3352.131146967096},{"id":"tio-albertos-san-luis-obispo-2","name":"Tio Alberto's","image_url":"","is_closed":false,"url":"https://www.yelp.com/biz/tio-albertos-san-luis-obispo-2?adjust_creative=W0FHo_DCPg17nE7p3sBQcg&utm_campaign=yelp_api_v3&utm_medium=api_v3_business_search&utm_source=W0FHo_DCPg17nE7p3sBQcg","review_count":0,"categories":[{"alias":"mexican","title":"Mexican"}],"rating":0.0,"coordinates":{"latitude":35.2579803,"longitude":-120.6467209},"transactions":["delivery"],"location":{"address1":"3450 Broad St","address2":null,"address3":null,"city":"San Luis Obispo","zip_code":"93401","country":"US","state":"CA","display_address":["3450 Broad St","San Luis Obispo, CA 93401"]},"phone":"+18055413663","display_phone":"(805) 541-3663","distance":3594.465490781192},{"id":"linnaeas-kitchen-san-luis-obispo","name":"Linnaea's Kitchen","image_url":"","is_closed":false,"url":"https://www.yelp.com/biz/linnaeas-kitchen-san-luis-obispo?adjust_creative=W0FHo_DCPg17nE7p3sBQcg&utm_campaign=yelp_api_v3&utm_medium=api_v3_business_search&utm_source=W0FHo_DCPg17nE7p3sBQcg","review_count":0,"categories":[{"alias":"restaurants","title":"Restaurants"}],"rating":0.0,"coordinates":{"latitude":35.257762,"longitude":-120.644882},"transactions":[],"location":{"address1":"3468 Sacramento Dr","address2":"","address3":"","city":"San Luis Obispo","zip_code":"93401","country":"US","state":"CA","display_address":["3468 Sacramento Dr","San Luis Obispo, CA 93401"]},"phone":"+18055436867","display_phone":"(805) 543-6867","distance":3744.443826332984},{"id":"the-octagon-barn-center-san-luis-obispo","name":"The Octagon Barn Center","image_url":"https://s3-media4.fl.yelpcdn.com/bphoto/aLVfFqDP3RwGxG-zNoODXw/o.jpg","is_closed":false,"url":"https://www.yelp.com/biz/the-octagon-barn-center-san-luis-obispo?adjust_creative=W0FHo_DCPg17nE7p3sBQcg&utm_campaign=yelp_api_v3&utm_medium=api_v3_business_search&utm_source=W0FHo_DCPg17nE7p3sBQcg","review_count":0,"categories":[{"alias":"landmarks","title":"Landmarks & Historical Buildings"}],"rating":0.0,"coordinates":{"latitude":35.2794799804688,"longitude":-120.661659240723},"transactions":[],"location":{"address1":"4400 Octagon Way","address2":"","address3":null,"city":"San Luis Obispo","zip_code":"93401","country":"US","state":"CA","display_address":["4400 Octagon Way","San Luis Obispo, CA 93401"]},"phone":"+18055449096","display_phone":"(805) 544-9096","distance":4243.612915521404}],"total":300,"region":{"center":{"longitude":-120.6803512573,"latitude":35.2750434489}}}
